id,destination_name,city,state_region,country,category,description,best_time_to_visit,average_budget,safety_score,popularity_score,latitude,longitude,image_url
328ede61-f6ab-40b9-b4db-fbf2d2b30771,Goa,Goa,Goa,India,beach,Stunning coastal destination with golden sands and azure waters.,Oct-Mar,8819,8.5,6.2,15.2633,74.0842,https://images.unsplash.com/photo-1507525428034-b723cf961d3e?w=800
112400c1-6709-4b51-a4ac-dd0bc245dfa8,Manali,Manali,Himachal Pradesh,India,hill_station,Scenic mountain retreat with breathtaking valley views.,Year-round,6424,7.9,5.2,32.199,77.162,https://images.unsplash.com/photo-1506905925346-21bda4d32df4?w=800
4ca2061d-7d46-42c0-9c2b-06963bbd7b1a,Shimla,Shimla,Himachal Pradesh,India,hill_station,Scenic mountain retreat with breathtaking valley views.,Year-round,5434,7.7,8.4,31.1249,77.1654,https://images.unsplash.com/photo-1506905925346-21bda4d32df4?w=800
e35792c5-e82a-4730-95c7-19b72255464c,Dharamshala,Dharamshala,Himachal Pradesh,India,hill_station,Scenic mountain retreat with breathtaking valley views.,Jul-Sep,14654,6.6,9.2,32.2449,76.2894,https://images.unsplash.com/photo-1506905925346-21bda4d32df4?w=800
965fb6b4-a1d6-4059-bd1d-f5a7e5427a70,Kasol,Kasol,Himachal Pradesh,India,village,Charming rustic village with authentic local culture.,Jul-Sep,4787,6.6,6.0,32.0384,77.2747,https://images.unsplash.com/photo-1464822759023-fed622ff2c3b?w=800
2b6cbbe0-efde-41c5-b64a-20e51056ce52,Spiti Valley,Spiti Valley,Himachal Pradesh,India,adventure,"Thrilling destination for trekking, skiing, and adventure sports.",Jul-Sep,11169,6.9,6.7,32.2226,77.9901,https://images.unsplash.com/photo-1551632811-561732d1e306?w=800
06f887c9-1991-4bcb-bfc5-150cf96966af,Dalhousie,Dalhousie,Himachal Pradesh,India,hill_station,Scenic mountain retreat with breathtaking valley views.,Jul-Sep,13785,6.0,9.4,32.4962,75.9554,https://images.unsplash.com/photo-1506905925346-21bda4d32df4?w=800
951f0bf6-08e2-4848-b6db-0c8aa3c71078,Jaipur,Jaipur,Rajasthan,India,heritage,Historic destination with ancient monuments and architectural marvels.,Year-round,20507,8.9,7.8,26.9329,75.7419,https://images.unsplash.com/photo-1524492412937-b28074a5d7da?w=800
e4d41dd8-967b-4b94-ad93-0876a1381203,Jodhpur,Jodhpur,Rajasthan,India,heritage,Historic destination with ancient monuments and architectural marvels.,Nov-Feb,18665,6.7,5.4,26.2122,72.9844,https://images.unsplash.com/photo-1524492412937-b28074a5d7da?w=800
f78d2611-1339-40fc-9ef1-db1997431052,Udaipur,Udaipur,Rajasthan,India,heritage,Historic destination with ancient monuments and architectural marvels.,Apr-Jun,13428,8.0,6.8,24.5724,73.6835,https://images.unsplash.com/photo-1524492412937-b28074a5d7da?w=800
1a29c2e2-8d02-4a5d-8628-5c1f1222a381,Jaisalmer,Jaisalmer,Rajasthan,India,desert,Vast desert with golden dunes and starry nights.,Apr-Jun,17498,9.2,8.1,26.9266,70.8754,https://images.unsplash.com/photo-1509316785289-025f5b846b35?w=800
905b6be7-74d0-4d0d-ab34-9e4ce2016b97,Pushkar,Pushkar,Rajasthan,India,religious,Sacred pilgrimage site with spiritual significance.,Nov-Feb,5677,7.3,6.3,26.5324,74.5698,https://images.unsplash.com/photo-1545126218-ab2e43f54571?w=800
1f533550-61b2-402c-a67b-fc4c6c53d862,Bikaner,Bikaner,Rajasthan,India,heritage,Historic destination with ancient monuments and architectural marvels.,Nov-Feb,17216,6.8,8.7,27.9785,73.3441,https://images.unsplash.com/photo-1524492412937-b28074a5d7da?w=800
0c87f943-d2de-477d-bc2a-4934ff4f40ef,Mount Abu,Mount Abu,Rajasthan,India,hill_station,Scenic mountain retreat with breathtaking valley views.,Apr-Jun,11572,6.6,6.0,24.6369,72.7532,https://images.unsplash.com/photo-1506905925346-21bda4d32df4?w=800
4a3839c0-d93e-436b-9f53-cfdb61b715d7,Ranthambore,Ranthambore,Rajasthan,India,national_park,Protected wildlife sanctuary with diverse fauna.,Apr-Jun,8483,8.1,6.9,26.0588,76.4985,https://images.unsplash.com/photo-1516026672322-bc52d61a55d5?w=800
b691e531-8a62-407d-b2df-2e09b9cbc375,Kochi,Kochi,Kerala,India,city,"Vibrant urban destination with culture, cuisine, and nightlife.",Apr-Jun,14575,6.5,7.7,9.9075,76.2758,https://images.unsplash.com/photo-1477959858617-67f85cf4f1df?w=800
61f21e25-022a-46ef-a903-8c1502f57086,Munnar,Munnar,Kerala,India,hill_station,Scenic mountain retreat with breathtaking valley views.,Year-round,11543,6.9,9.8,10.053,77.0589,https://images.unsplash.com/photo-1506905925346-21bda4d32df4?w=800
62f21984-6ba1-4a19-bafb-2f6bd8e8ffd3,Alleppey,Alleppey,Kerala,India,backwater,Serene backwater destination with houseboat stays.,Oct-Mar,11592,6.1,5.8,9.5161,76.3484,https://images.unsplash.com/photo-1602002418082-a4443e081dd1?w=800
4e77ea52-306b-4727-81d5-c7634aebe4db,Thekkady,Thekkady,Kerala,India,national_park,Protected wildlife sanctuary with diverse fauna.,Jul-Sep,11252,7.9,7.2,9.5751,77.1653,https://images.unsplash.com/photo-1516026672322-bc52d61a55d5?w=800
f4a7ea6d-1b84-4370-ba38-bb2fda48fb89,Kovalam,Kovalam,Kerala,India,beach,Stunning coastal destination with golden sands and azure waters.,Oct-Mar,11753,8.2,7.6,8.3771,76.9928,https://images.unsplash.com/photo-1507525428034-b723cf961d3e?w=800
bfa6e637-76eb-445b-ab32-3219783a9c2a,Varkala,Varkala,Kerala,India,beach,Stunning coastal destination with golden sands and azure waters.,Oct-Mar,17617,7.2,7.2,8.7833,76.7539,https://images.unsplash.com/photo-1507525428034-b723cf961d3e?w=800
a0263033-fe61-431f-8558-050af4350324,Wayanad,Wayanad,Kerala,India,nature,Pristine natural destination with lush landscapes and wildlife.,Apr-Jun,13201,8.5,7.4,11.646,76.1445,https://images.unsplash.com/photo-1441974231531-c6227db76b6e?w=800
fe9475d2-e079-46ab-b65f-8e1a16a09630,Bangalore,Bangalore,Karnataka,India,city,"Vibrant urban destination with culture, cuisine, and nightlife.",Year-round,29954,6.3,6.8,12.9378,77.6399,https://images.unsplash.com/photo-1477959858617-67f85cf4f1df?w=800
a6a5e362-7046-4186-8b37-fc55b31a7e66,Mysore,Mysore,Karnataka,India,heritage,Historic destination with ancient monuments and architectural marvels.,Year-round,21048,5.5,6.6,12.2477,76.6823,https://images.unsplash.com/photo-1524492412937-b28074a5d7da?w=800
2b15d43d-53a2-4931-a096-c6dda3b57184,Coorg,Coorg,Karnataka,India,hill_station,Scenic mountain retreat with breathtaking valley views.,Apr-Jun,8923,5.7,9.2,12.4691,75.6968,https://images.unsplash.com/photo-1506905925346-21bda4d32df4?w=800
c93742c5-4b41-4c08-913a-4f9c1e0545f9,Hampi,Hampi,Karnataka,India,heritage,Historic destination with ancient monuments and architectural marvels.,Jul-Sep,19369,5.8,8.7,15.3616,76.4228,https://images.unsplash.com/photo-1524492412937-b28074a5d7da?w=800
5afc8c0a-3c43-40d8-a926-966425fd03e5,Gokarna,Gokarna,Karnataka,India,beach,Stunning coastal destination with golden sands and azure waters.,Jul-Sep,13410,6.6,9.2,14.5402,74.29,https://images.unsplash.com/photo-1507525428034-b723cf961d3e?w=800
b65a2fa8-5d91-40e9-9b79-df348c23af30,Chikmagalur,Chikmagalur,Karnataka,India,hill_station,Scenic mountain retreat with breathtaking valley views.,Year-round,17374,8.4,6.0,13.2973,75.8215,https://images.unsplash.com/photo-1506905925346-21bda4d32df4?w=800
18c3a654-44c9-48fd-bce5-7f2fec28298c,Chennai,Chennai,Tamil Nadu,India,city,"Vibrant urban destination with culture, cuisine, and nightlife.",Apr-Jun,24355,9.1,7.2,13.0575,80.2271,https://images.unsplash.com/photo-1477959858617-67f85cf4f1df?w=800
83baf198-26d4-4173-a54b-360306e3a267,Ooty,Ooty,Tamil Nadu,India,hill_station,Scenic mountain retreat with breathtaking valley views.,Oct-Mar,14638,7.7,7.8,11.3571,76.714,https://images.unsplash.com/photo-1506905925346-21bda4d32df4?w=800
2682021c-b06b-4942-beac-62f3693c48e8,Kodaikanal,Kodaikanal,Tamil Nadu,India,hill_station,Scenic mountain retreat with breathtaking valley views.,Oct-Mar,8750,5.8,5.2,10.2211,77.4906,https://images.unsplash.com/photo-1506905925346-21bda4d32df4?w=800
e09e8c65-a183-4a73-95e7-e202e30805fa,Mahabalipuram,Mahabalipuram,Tamil Nadu,India,heritage,Historic destination with ancient monuments and architectural marvels.,Apr-Jun,16960,7.4,7.6,12.6385,80.231,https://images.unsplash.com/photo-1524492412937-b28074a5d7da?w=800
37c2cf2f-6414-4189-a856-fe63de6ba213,Rameswaram,Rameswaram,Tamil Nadu,India,religious,Sacred pilgrimage site with spiritual significance.,Year-round,10744,6.5,7.3,9.2783,79.2723,https://images.unsplash.com/photo-1545126218-ab2e43f54571?w=800
6a8ff9a8-9f98-4ca9-b777-d20ace0960b3,Madurai,Madurai,Tamil Nadu,India,religious,Sacred pilgrimage site with spiritual significance.,Jul-Sep,8804,7.2,7.2,9.9481,78.1371,https://images.unsplash.com/photo-1545126218-ab2e43f54571?w=800
48f26f15-f6d2-4a12-b755-b4b845c6c8a6,Mumbai,Mumbai,Maharashtra,India,city,"Vibrant urban destination with culture, cuisine, and nightlife.",Oct-Mar,11986,7.1,6.6,19.1122,72.8526,https://images.unsplash.com/photo-1477959858617-67f85cf4f1df?w=800
4564f820-5261-4e45-a212-8bac3cf0fb93,Pune,Pune,Maharashtra,India,city,"Vibrant urban destination with culture, cuisine, and nightlife.",Nov-Feb,27573,7.3,7.0,18.4983,73.8317,https://images.unsplash.com/photo-1477959858617-67f85cf4f1df?w=800
746cc333-af7c-4205-9364-09c3f74f566a,Aurangabad,Aurangabad,Maharashtra,India,heritage,Historic destination with ancient monuments and architectural marvels.,Oct-Mar,13260,8.7,9.1,19.836,75.3585,https://images.unsplash.com/photo-1524492412937-b28074a5d7da?w=800
cf2d1d5c-089d-42f3-a9a9-94172e756974,Lonavala,Lonavala,Maharashtra,India,hill_station,Scenic mountain retreat with breathtaking valley views.,Year-round,18697,5.6,5.4,18.7811,73.3827,https://images.unsplash.com/photo-1506905925346-21bda4d32df4?w=800
d95e84f4-3256-452b-9f2c-858658aa3333,Mahabaleshwar,Mahabaleshwar,Maharashtra,India,hill_station,Scenic mountain retreat with breathtaking valley views.,Jul-Sep,12956,7.4,9.2,17.9637,73.6251,https://images.unsplash.com/photo-1506905925346-21bda4d32df4?w=800
c7edc276-14f4-4e9e-8ce7-0e7759a21fb9,Nasik,Nasik,Maharashtra,India,religious,Sacred pilgrimage site with spiritual significance.,Oct-Mar,9396,6.6,8.8,19.993,73.7821,https://images.unsplash.com/photo-1545126218-ab2e43f54571?w=800
63332c79-906a-471b-8482-09e8aafc68d5,Agra,Agra,Uttar Pradesh,India,heritage,Historic destination with ancient monuments and architectural marvels.,Year-round,16844,8.4,5.7,27.1564,78.055,https://images.unsplash.com/photo-1524492412937-b28074a5d7da?w=800
96097997-2fe2-4ae2-a476-8b92aece2e79,Varanasi,Varanasi,Uttar Pradesh,India,religious,Sacred pilgrimage site with spiritual significance.,Year-round,11883,5.7,6.5,25.2726,82.9716,https://images.unsplash.com/photo-1545126218-ab2e43f54571?w=800
aa7ed065-72a9-46f6-9a60-fe26885fd761,Lucknow,Lucknow,Uttar Pradesh,India,city,"Vibrant urban destination with culture, cuisine, and nightlife.",Year-round,15158,5.7,7.4,26.8818,80.9031,https://images.unsplash.com/photo-1477959858617-67f85cf4f1df?w=800
a1e31474-139d-4f93-9a83-57c3f518cfa1,Mathura,Mathura,Uttar Pradesh,India,religious,Sacred pilgrimage site with spiritual significance.,Oct-Mar,14062,8.9,6.9,27.5366,77.6807,https://images.unsplash.com/photo-1545126218-ab2e43f54571?w=800
ea342959-57e9-44fa-99ba-35aeb3ee2be7,Vrindavan,Vrindavan,Uttar Pradesh,India,religious,Sacred pilgrimage site with spiritual significance.,Year-round,12740,5.7,5.4,27.5869,77.7107,https://images.unsplash.com/photo-1545126218-ab2e43f54571?w=800
cf2edd1a-9e7c-4fa0-98b5-081a25f5b149,Ayodhya,Ayodhya,Uttar Pradesh,India,religious,Sacred pilgrimage site with spiritual significance.,Apr-Jun,7272,6.3,8.4,26.7661,82.1894,https://images.unsplash.com/photo-1545126218-ab2e43f54571?w=800
c12fe7dd-c9fc-438a-8e85-bfbe4e4fc11a,Ahmedabad,Ahmedabad,Gujarat,India,city,"Vibrant urban destination with culture, cuisine, and nightlife.",Apr-Jun,24982,6.8,8.6,22.9798,72.5672,https://images.unsplash.com/photo-1477959858617-67f85cf4f1df?w=800
d7042974-d8f2-4f4b-aa83-2f107f7cc53c,Rann of Kutch,Rann of Kutch,Gujarat,India,desert,Vast desert with golden dunes and starry nights.,Year-round,7638,5.8,6.0,23.7102,70.8455,https://images.unsplash.com/photo-1509316785289-025f5b846b35?w=800
725f450d-88a1-4c22-9f4f-7ca7592e5a53,Somnath,Somnath,Gujarat,India,religious,Sacred pilgrimage site with spiritual significance.,Oct-Mar,7002,7.0,5.8,20.934,70.4046,https://images.unsplash.com/photo-1545126218-ab2e43f54571?w=800
b7af16f1-17f1-4a09-95b4-ecbd8b19259c,Dwarka,Dwarka,Gujarat,India,religious,Sacred pilgrimage site with spiritual significance.,Year-round,13714,7.6,8.2,22.2497,69.0117,https://images.unsplash.com/photo-1545126218-ab2e43f54571?w=800
7c01099d-c317-4cd2-a0e9-017b3b40f476,Rishikesh,Rishikesh,Uttarakhand,India,religious,Sacred pilgrimage site with spiritual significance.,Oct-Mar,5200,6.6,9.3,30.1111,78.2331,https://images.unsplash.com/photo-1545126218-ab2e43f54571?w=800
cc9a8813-b129-4e9a-b86c-869c7c736334,Haridwar,Haridwar,Uttarakhand,India,religious,Sacred pilgrimage site with spiritual significance.,Apr-Jun,12909,6.3,6.6,29.9644,78.1995,https://images.unsplash.com/photo-1545126218-ab2e43f54571?w=800
3e5b443e-8d92-4836-a0fb-9bb68473064f,Nainital,Nainital,Uttarakhand,India,hill_station,Scenic mountain retreat with breathtaking valley views.,Year-round,13004,6.5,9.4,29.3354,79.477,https://images.unsplash.com/photo-1506905925346-21bda4d32df4?w=800
cbc9cea4-2a35-4877-b640-2a4a398057a4,Mussoorie,Mussoorie,Uttarakhand,India,hill_station,Scenic mountain retreat with breathtaking valley views.,Apr-Jun,5722,5.5,8.7,30.4735,78.0426,https://images.unsplash.com/photo-1506905925346-21bda4d32df4?w=800
1614ac08-0a75-4cea-ac7c-b8f3826d5ec8,Jim Corbett,Jim Corbett,Uttarakhand,India,national_park,Protected wildlife sanctuary with diverse fauna.,Jul-Sep,14038,8.3,7.7,29.4912,78.8192,https://images.unsplash.com/photo-1516026672322-bc52d61a55d5?w=800
9b410cca-ffe5-44a0-a27e-77704531c3c9,Auli,Auli,Uttarakhand,India,ski_resort,Premier ski destination with world-class slopes.,Nov-Feb,29877,5.6,6.8,30.5296,79.558,https://images.unsplash.com/photo-1467809941588-68d5c9e3c9fd?w=800
3b1f5e73-940c-4edb-893a-44052093523d,Kedarnath,Kedarnath,Uttarakhand,India,religious,Sacred pilgrimage site with spiritual significance.,Oct-Mar,8050,7.0,9.5,30.7824,79.0209,https://images.unsplash.com/photo-1545126218-ab2e43f54571?w=800
9649f033-86e4-4ea3-a1ca-3eaa589055f3,Badrinath,Badrinath,Uttarakhand,India,religious,Sacred pilgrimage site with spiritual significance.,Apr-Jun,6441,8.2,8.2,30.7287,79.4998,https://images.unsplash.com/photo-1545126218-ab2e43f54571?w=800
73580b28-a0b9-4417-8f9d-0e630db3257c,Khajuraho,Khajuraho,Madhya Pradesh,India,heritage,Historic destination with ancient monuments and architectural marvels.,Jul-Sep,21955,8.0,5.7,24.8748,79.9564,https://images.unsplash.com/photo-1524492412937-b28074a5d7da?w=800
f2c7ec10-e696-4188-afb4-0bd8075dc9d3,Bhopal,Bhopal,Madhya Pradesh,India,city,"Vibrant urban destination with culture, cuisine, and nightlife.",Nov-Feb,38882,7.1,5.9,23.3023,77.4408,https://images.unsplash.com/photo-1477959858617-67f85cf4f1df?w=800
d49501a9-6930-4675-9100-7e172ae3b279,Bandhavgarh,Bandhavgarh,Madhya Pradesh,India,national_park,Protected wildlife sanctuary with diverse fauna.,Jul-Sep,18143,8.2,8.5,23.6971,81.0006,https://images.unsplash.com/photo-1516026672322-bc52d61a55d5?w=800
dc8cb3df-e238-41fc-bae8-c8ad268b0c47,Orchha,Orchha,Madhya Pradesh,India,heritage,Historic destination with ancient monuments and architectural marvels.,Oct-Mar,12267,9.0,9.1,25.3241,78.6729,https://images.unsplash.com/photo-1524492412937-b28074a5d7da?w=800
c2be1b34-028c-42de-b788-f540c4a8ce66,Panchmarhi,Panchmarhi,Madhya Pradesh,India,hill_station,Scenic mountain retreat with breathtaking valley views.,Jul-Sep,10728,6.7,8.8,22.4404,78.3876,https://images.unsplash.com/photo-1506905925346-21bda4d32df4?w=800
c9263e80-8f6a-4115-aa49-86c91d73610a,Kolkata,Kolkata,West Bengal,India,city,"Vibrant urban destination with culture, cuisine, and nightlife.",Nov-Feb,23056,6.8,9.1,22.6193,88.3418,https://images.unsplash.com/photo-1477959858617-67f85cf4f1df?w=800
6fcdbbed-dc5d-4f93-8361-986107b6e198,Darjeeling,Darjeeling,West Bengal,India,hill_station,Scenic mountain retreat with breathtaking valley views.,Year-round,11548,8.2,9.0,27.0191,88.2155,https://images.unsplash.com/photo-1506905925346-21bda4d32df4?w=800
799cd7f4-23d9-44b2-8d70-c8f0fbdb2998,Sundarbans,Sundarbans,West Bengal,India,national_park,Protected wildlife sanctuary with diverse fauna.,Apr-Jun,7925,7.8,9.7,21.9035,88.9082,https://images.unsplash.com/photo-1516026672322-bc52d61a55d5?w=800
909f9fce-346b-49e9-80bb-c46bdcbbee06,Puri,Puri,Odisha,India,religious,Sacred pilgrimage site with spiritual significance.,Apr-Jun,14936,8.6,7.1,19.8619,85.7928,https://images.unsplash.com/photo-1545126218-ab2e43f54571?w=800
3a35954b-1b8b-4f1b-9c2e-81f2653b2406,Bhubaneswar,Bhubaneswar,Odisha,India,heritage,Historic destination with ancient monuments and architectural marvels.,Year-round,9114,6.5,8.4,20.2463,85.8671,https://images.unsplash.com/photo-1524492412937-b28074a5d7da?w=800
a70c8dba-b68c-4fa2-b4df-a905ffa99734,Konark,Konark,Odisha,India,heritage,Historic destination with ancient monuments and architectural marvels.,Year-round,17253,8.4,8.6,19.9047,86.0809,https://images.unsplash.com/photo-1524492412937-b28074a5d7da?w=800
9a61b147-4c6c-473d-a9dc-c9802a91b6f9,Hyderabad,Hyderabad,Telangana,India,city,"Vibrant urban destination with culture, cuisine, and nightlife.",Oct-Mar,31765,9.2,8.0,17.4013,78.4492,https://images.unsplash.com/photo-1477959858617-67f85cf4f1df?w=800
c6af2259-707b-4ab2-ba55-17b32e256d7a,Tirupati,Tirupati,Andhra Pradesh,India,religious,Sacred pilgrimage site with spiritual significance.,Apr-Jun,11308,6.7,7.0,13.619,79.3988,https://images.unsplash.com/photo-1545126218-ab2e43f54571?w=800
c66aca8c-f85c-4f69-80dd-300dfc1571a5,Visakhapatnam,Visakhapatnam,Andhra Pradesh,India,beach,Stunning coastal destination with golden sands and azure waters.,Nov-Feb,14286,7.2,9.5,17.7045,83.2588,https://images.unsplash.com/photo-1507525428034-b723cf961d3e?w=800
6db92dbe-94e2-472c-948f-1c236124aec1,Guwahati,Guwahati,Assam,India,city,"Vibrant urban destination with culture, cuisine, and nightlife.",Year-round,28648,6.7,7.6,26.0945,91.7149,https://images.unsplash.com/photo-1477959858617-67f85cf4f1df?w=800
90fbd830-6d92-4dc9-8738-b0197c8963cb,Kaziranga,Kaziranga,Assam,India,national_park,Protected wildlife sanctuary with diverse fauna.,Jul-Sep,17873,7.8,8.1,26.574,93.1653,https://images.unsplash.com/photo-1516026672322-bc52d61a55d5?w=800
ec678660-05ce-4e13-8874-de38b65a68b0,Shillong,Shillong,Meghalaya,India,hill_station,Scenic mountain retreat with breathtaking valley views.,Nov-Feb,13375,7.4,9.3,25.6084,91.8603,https://images.unsplash.com/photo-1506905925346-21bda4d32df4?w=800
4f0e067a-1bb2-4aaa-b8e8-ba1decde8e75,Cherrapunji,Cherrapunji,Meghalaya,India,nature,Pristine natural destination with lush landscapes and wildlife.,Oct-Mar,9649,7.6,8.0,25.2682,91.7656,https://images.unsplash.com/photo-1441974231531-c6227db76b6e?w=800
8d127b6c-8ebd-451a-90fe-0a40bc83fae2,Gangtok,Gangtok,Sikkim,India,hill_station,Scenic mountain retreat with breathtaking valley views.,Nov-Feb,16023,6.7,8.9,27.2961,88.5684,https://images.unsplash.com/photo-1506905925346-21bda4d32df4?w=800
8af03a2d-b479-433c-af81-52452392345e,Leh,Leh,Ladakh,India,adventure,"Thrilling destination for trekking, skiing, and adventure sports.",Jul-Sep,28030,8.9,5.3,34.144,77.5901,https://images.unsplash.com/photo-1551632811-561732d1e306?w=800
8395eb86-a64c-4449-8de1-5c2388980b56,Srinagar,Srinagar,Jammu and Kashmir,India,nature,Pristine natural destination with lush landscapes and wildlife.,Nov-Feb,16769,8.3,7.4,34.0581,74.8129,https://images.unsplash.com/photo-1441974231531-c6227db76b6e?w=800
201b19d6-8425-4f02-a506-ce8a6fdd3d1b,Amritsar,Amritsar,Punjab,India,religious,Sacred pilgrimage site with spiritual significance.,Oct-Mar,4746,8.6,6.1,31.6644,74.8919,https://images.unsplash.com/photo-1545126218-ab2e43f54571?w=800
eea57021-521c-4b20-b8a3-8055716b6ef3,Chandigarh,Chandigarh,Punjab,India,city,"Vibrant urban destination with culture, cuisine, and nightlife.",Jul-Sep,11645,7.7,9.4,30.6954,76.7427,https://images.unsplash.com/photo-1477959858617-67f85cf4f1df?w=800
98331369-02f0-4b82-bd84-080d8c63715d,Port Blair,Port Blair,Andaman,India,island,Tropical island paradise with turquoise waters.,Jul-Sep,58750,7.6,7.7,11.6051,92.752,https://images.unsplash.com/photo-1506197603052-3cc9c3a201bd?w=800
22691f9f-b481-4ea8-8ac7-907047eb5302,Havelock Island,Havelock Island,Andaman,India,island,Tropical island paradise with turquoise waters.,Jul-Sep,55150,8.8,9.3,12.0145,93.0276,https://images.unsplash.com/photo-1506197603052-3cc9c3a201bd?w=800
e14aa75e-a83d-4d6a-9c23-21f9e8910d93,Vaishno Devi,Vaishno Devi,Jammu and Kashmir,India,religious,Sacred pilgrimage site with spiritual significance.,Jul-Sep,5607,8.5,7.3,33.0055,74.9268,https://images.unsplash.com/photo-1545126218-ab2e43f54571?w=800
0bd0b165-f413-4123-b607-bc74b958deb7,Bodh Gaya,Bodh Gaya,Bihar,India,religious,Sacred pilgrimage site with spiritual significance.,Apr-Jun,11540,7.4,6.1,24.6901,85.0127,https://images.unsplash.com/photo-1545126218-ab2e43f54571?w=800
80f2f749-ef07-4d68-8e28-7df7c12bfd57,Nalanda,Nalanda,Bihar,India,heritage,Historic destination with ancient monuments and architectural marvels.,Nov-Feb,10451,6.8,9.3,25.0947,85.4093,https://images.unsplash.com/photo-1524492412937-b28074a5d7da?w=800
40fa2033-9c50-42b1-8933-0a144ddebc97,Dehradun,Dehradun,Uttarakhand,India,city,"Vibrant urban destination with culture, cuisine, and nightlife.",Jul-Sep,32739,6.1,6.0,30.308,78.0153,https://images.unsplash.com/photo-1477959858617-67f85cf4f1df?w=800
f4c876b9-5dcf-4c62-befb-bfbf228f0f7a,Bali,Bali,Bali,Indonesia,beach,Stunning coastal destination with golden sands and azure waters.,Jul-Sep,21624,5.7,9.0,-8.3516,115.119,https://images.unsplash.com/photo-1507525428034-b723cf961d3e?w=800
0d5368a5-dc28-43c2-8b18-63ec3f375ede,Bangkok,Bangkok,Bangkok,Thailand,city,"Vibrant urban destination with culture, cuisine, and nightlife.",Oct-Mar,38073,9.0,7.8,13.754,100.5461,https://images.unsplash.com/photo-1477959858617-67f85cf4f1df?w=800
96e36cab-5ec5-42c2-b9ad-782bc51ccaef,Phuket,Phuket,Phuket,Thailand,beach,Stunning coastal destination with golden sands and azure waters.,Apr-Jun,20779,8.9,9.6,7.8723,98.4171,https://images.unsplash.com/photo-1507525428034-b723cf961d3e?w=800
215065ef-cacb-48ca-bad7-6894f7f51da7,Chiang Mai,Chiang Mai,Chiang Mai,Thailand,city,"Vibrant urban destination with culture, cuisine, and nightlife.",Year-round,36210,7.9,6.1,18.7602,98.9789,https://images.unsplash.com/photo-1477959858617-67f85cf4f1df?w=800
8bfa6957-c989-46b3-b41a-73c834527872,Singapore,Singapore,Singapore,Singapore,city,"Vibrant urban destination with culture, cuisine, and nightlife.",Oct-Mar,22742,6.8,8.3,1.3425,103.7863,https://images.unsplash.com/photo-1477959858617-67f85cf4f1df?w=800
0f3b2a9c-2b3f-41f8-97dc-f6723ec81482,Kuala Lumpur,Kuala Lumpur,KL,Malaysia,city,"Vibrant urban destination with culture, cuisine, and nightlife.",Jul-Sep,14182,9.4,7.6,3.1797,101.6961,https://images.unsplash.com/photo-1477959858617-67f85cf4f1df?w=800
6c536f67-ef6b-4eb6-9e61-8e0024fbf383,Ho Chi Minh City,Ho Chi Minh City,Vietnam,Vietnam,city,"Vibrant urban destination with culture, cuisine, and nightlife.",Oct-Mar,12750,8.1,5.7,10.8193,106.5847,https://images.unsplash.com/photo-1477959858617-67f85cf4f1df?w=800
29c4f1e6-e6d6-4716-981a-c9f52ccdfe70,Hanoi,Hanoi,Hanoi,Vietnam,heritage,Historic destination with ancient monuments and architectural marvels.,Jul-Sep,11363,6.3,6.6,21.0546,105.8421,https://images.unsplash.com/photo-1524492412937-b28074a5d7da?w=800
c68b4ca4-33c1-4419-a3a7-ecd58f5ea799,Ha Long Bay,Ha Long Bay,Quang Ninh,Vietnam,nature,Pristine natural destination with lush landscapes and wildlife.,Jul-Sep,9133,8.8,7.3,20.935,107.1391,https://images.unsplash.com/photo-1441974231531-c6227db76b6e?w=800
cc9fbdb5-9156-4e9e-97c7-7d2e51b22e8c,Siem Reap,Siem Reap,Siem Reap,Cambodia,heritage,Historic destination with ancient monuments and architectural marvels.,Apr-Jun,9673,8.1,8.7,13.3823,103.8702,https://images.unsplash.com/photo-1524492412937-b28074a5d7da?w=800
5662f9ee-9253-44f4-a832-1d4ab24ae926,Manila,Manila,Philippines,Philippines,city,"Vibrant urban destination with culture, cuisine, and nightlife.",Nov-Feb,16532,8.9,8.0,14.5734,120.9816,https://images.unsplash.com/photo-1477959858617-67f85cf4f1df?w=800
45eb73a9-f9b8-4c71-bc8d-ced2d213c078,Palawan,Palawan,Palawan,Philippines,island,Tropical island paradise with turquoise waters.,Oct-Mar,51960,9.3,7.2,9.8105,118.7253,https://images.unsplash.com/photo-1506197603052-3cc9c3a201bd?w=800
015ec2cd-cec1-422e-9754-e4ca03eb5b45,Tokyo,Tokyo,Tokyo,Japan,city,"Vibrant urban destination with culture, cuisine, and nightlife.",Year-round,29898,9.4,8.4,35.704,139.6167,https://images.unsplash.com/photo-1477959858617-67f85cf4f1df?w=800
37181a52-79ad-4e53-9f72-f19e825fa946,Kyoto,Kyoto,Kyoto,Japan,heritage,Historic destination with ancient monuments and architectural marvels.,Apr-Jun,7771,7.8,9.5,35.0192,135.8089,https://images.unsplash.com/photo-1524492412937-b28074a5d7da?w=800
9e6de5ca-476d-4c2b-afc3-b80fa61fd8c7,Osaka,Osaka,Osaka,Japan,city,"Vibrant urban destination with culture, cuisine, and nightlife.",Jul-Sep,22997,9.3,6.0,34.7029,135.5354,https://images.unsplash.com/photo-1477959858617-67f85cf4f1df?w=800
e35c16ec-d93f-4afd-838f-76d2391ee3de,Seoul,Seoul,Seoul,South Korea,city,"Vibrant urban destination with culture, cuisine, and nightlife.",Nov-Feb,13339,8.3,6.4,37.5849,127.0086,https://images.unsplash.com/photo-1477959858617-67f85cf4f1df?w=800
530f9e53-b16e-48c5-b3eb-3fc209534aa0,Jeju Island,Jeju Island,Jeju,South Korea,island,Tropical island paradise with turquoise waters.,Year-round,17691,6.9,7.1,33.4867,126.5318,https://images.unsplash.com/photo-1506197603052-3cc9c3a201bd?w=800
344f94cb-ffba-483e-87a5-928ca890cf9b,Beijing,Beijing,Beijing,China,heritage,Historic destination with ancient monuments and architectural marvels.,Apr-Jun,6207,8.9,8.9,39.8648,116.4535,https://images.unsplash.com/photo-1524492412937-b28074a5d7da?w=800
63c9118f-e203-4cc5-9298-549fe1742366,Shanghai,Shanghai,Shanghai,China,city,"Vibrant urban destination with culture, cuisine, and nightlife.",Jul-Sep,33177,6.1,5.8,31.2326,121.4887,https://images.unsplash.com/photo-1477959858617-67f85cf4f1df?w=800
61b53389-5071-4152-b771-81bb60718386,Hong Kong,Hong Kong,Hong Kong,China,city,"Vibrant urban destination with culture, cuisine, and nightlife.",Year-round,36483,9.2,8.7,22.3158,114.202,https://images.unsplash.com/photo-1477959858617-67f85cf4f1df?w=800
5dd92212-4f81-4ffd-b2d8-85d61266f2bd,Colombo,Colombo,Sri Lanka,Sri Lanka,city,"Vibrant urban destination with culture, cuisine, and nightlife.",Year-round,18794,6.8,6.2,6.9706,79.8391,https://images.unsplash.com/photo-1477959858617-67f85cf4f1df?w=800
8cec7529-b856-478a-828d-8b2ea8ee9d1a,Sigiriya,Sigiriya,Sri Lanka,Sri Lanka,heritage,Historic destination with ancient monuments and architectural marvels.,Jul-Sep,9995,8.5,7.7,7.9738,80.7439,https://images.unsplash.com/photo-1524492412937-b28074a5d7da?w=800
2bdb8770-1da6-406f-a5a6-a7125245e4c7,Kathmandu,Kathmandu,Bagmati,Nepal,heritage,Historic destination with ancient monuments and architectural marvels.,Jul-Sep,19942,6.8,7.3,27.7027,85.2998,https://images.unsplash.com/photo-1524492412937-b28074a5d7da?w=800
723fd513-45f5-4860-8e6a-e7c46a7e8b65,Pokhara,Pokhara,Gandaki,Nepal,nature,Pristine natural destination with lush landscapes and wildlife.,Apr-Jun,14767,8.3,6.3,28.1606,84.0304,https://images.unsplash.com/photo-1441974231531-c6227db76b6e?w=800
9997edb3-457c-4edf-a535-c4f84febc3e0,Dubai,Dubai,Dubai,UAE,city,"Vibrant urban destination with culture, cuisine, and nightlife.",Oct-Mar,17908,8.4,7.3,25.2306,55.2899,https://images.unsplash.com/photo-1477959858617-67f85cf4f1df?w=800
054fe175-8461-44a6-b438-d6190844c5c5,Abu Dhabi,Abu Dhabi,Abu Dhabi,UAE,city,"Vibrant urban destination with culture, cuisine, and nightlife.",Jul-Sep,24685,8.7,5.4,24.4261,54.3965,https://images.unsplash.com/photo-1477959858617-67f85cf4f1df?w=800
4db8a8e7-276c-45bf-9104-add7ac5b52e0,Istanbul,Istanbul,Istanbul,Turkey,heritage,Historic destination with ancient monuments and architectural marvels.,Apr-Jun,16878,7.8,7.3,41.0113,28.971,https://images.unsplash.com/photo-1524492412937-b28074a5d7da?w=800
440fa70c-110a-45f8-bc8f-0a65858157f6,Cappadocia,Cappadocia,Nevsehir,Turkey,adventure,"Thrilling destination for trekking, skiing, and adventure sports.",Year-round,18839,6.9,7.2,38.6238,34.802,https://images.unsplash.com/photo-1551632811-561732d1e306?w=800
2be62015-5037-4e79-8a1e-94367e0f63d6,Marrakech,Marrakech,Marrakech,Morocco,heritage,Historic destination with ancient monuments and architectural marvels.,Nov-Feb,11169,6.0,7.6,31.6557,-8.0126,https://images.unsplash.com/photo-1524492412937-b28074a5d7da?w=800
29d1bcf4-70c3-4c28-97ef-80e787656fd6,Cairo,Cairo,Cairo,Egypt,heritage,Historic destination with ancient monuments and architectural marvels.,Nov-Feb,18101,7.4,8.5,30.0921,31.2382,https://images.unsplash.com/photo-1524492412937-b28074a5d7da?w=800
f3f0d19a-4ed9-4d35-a99c-9cb6d8eb7e34,Petra,Petra,Jordan,Jordan,heritage,Historic destination with ancient monuments and architectural marvels.,Apr-Jun,7647,8.8,6.4,30.3146,35.4246,https://images.unsplash.com/photo-1524492412937-b28074a5d7da?w=800
a5647c17-b377-42e4-ae7e-7ea2dfea9c2e,Paris,Paris,France,France,city,"Vibrant urban destination with culture, cuisine, and nightlife.",Year-round,14147,6.6,9.7,48.8619,2.3719,https://images.unsplash.com/photo-1477959858617-67f85cf4f1df?w=800
e3c2a4e3-a774-458d-bc97-e65b7ed3c154,Rome,Rome,Lazio,Italy,heritage,Historic destination with ancient monuments and architectural marvels.,Nov-Feb,16450,9.0,7.4,41.9401,12.5038,https://images.unsplash.com/photo-1524492412937-b28074a5d7da?w=800
9b1e2c39-9422-432f-8502-15d11beebac3,Venice,Venice,Veneto,Italy,heritage,Historic destination with ancient monuments and architectural marvels.,Jul-Sep,13843,7.3,5.9,45.3959,12.3596,https://images.unsplash.com/photo-1524492412937-b28074a5d7da?w=800
942b8580-743b-4847-8166-79236df76094,Barcelona,Barcelona,Catalonia,Spain,city,"Vibrant urban destination with culture, cuisine, and nightlife.",Jul-Sep,13738,8.8,6.9,41.3425,2.1863,https://images.unsplash.com/photo-1477959858617-67f85cf4f1df?w=800
1e67a09d-1db4-4ec1-9ab9-63aee9140e8e,Santorini,Santorini,Greece,Greece,island,Tropical island paradise with turquoise waters.,Oct-Mar,24943,6.1,7.7,36.3736,25.5109,https://images.unsplash.com/photo-1506197603052-3cc9c3a201bd?w=800
c691f0ef-cfad-4ca6-920b-c26eb93d5ea8,Athens,Athens,Attica,Greece,heritage,Historic destination with ancient monuments and architectural marvels.,Oct-Mar,15143,8.6,7.9,38.0129,23.7001,https://images.unsplash.com/photo-1524492412937-b28074a5d7da?w=800
c45bf317-0353-47bf-afe0-fb82b6e8a7f8,Amsterdam,Amsterdam,Netherlands,Netherlands,city,"Vibrant urban destination with culture, cuisine, and nightlife.",Year-round,22464,7.3,7.1,52.4036,4.9531,https://images.unsplash.com/photo-1477959858617-67f85cf4f1df?w=800
22f81abb-2bd2-4619-8e02-fdf95f744e92,Berlin,Berlin,Germany,Germany,city,"Vibrant urban destination with culture, cuisine, and nightlife.",Apr-Jun,28632,8.0,7.9,52.544,13.4498,https://images.unsplash.com/photo-1477959858617-67f85cf4f1df?w=800
ac0faa09-de46-4794-b2f8-22f4a4cd8128,Vienna,Vienna,Austria,Austria,heritage,Historic destination with ancient monuments and architectural marvels.,Nov-Feb,16248,6.3,8.2,48.1739,16.3412,https://images.unsplash.com/photo-1524492412937-b28074a5d7da?w=800
84562072-ba33-46f0-8203-ff77a33bacf3,Prague,Prague,Czech Republic,Czech Republic,heritage,Historic destination with ancient monuments and architectural marvels.,Oct-Mar,8564,5.5,7.2,50.0849,14.4169,https://images.unsplash.com/photo-1524492412937-b28074a5d7da?w=800
d233b0d7-5f90-467b-9c61-2306526eb76e,Budapest,Budapest,Hungary,Hungary,heritage,Historic destination with ancient monuments and architectural marvels.,Nov-Feb,10720,8.3,8.4,47.4933,19.0589,https://images.unsplash.com/photo-1524492412937-b28074a5d7da?w=800
25888576-6da0-40d6-a9bb-20054af51dc6,Interlaken,Interlaken,Bern,Switzerland,adventure,"Thrilling destination for trekking, skiing, and adventure sports.",Apr-Jun,28481,7.9,8.9,46.6561,7.8247,https://images.unsplash.com/photo-1551632811-561732d1e306?w=800
164b290a-c1ff-4da4-aa3e-77758b38e0ed,London,London,England,United Kingdom,city,"Vibrant urban destination with culture, cuisine, and nightlife.",Nov-Feb,31221,6.1,6.3,51.4716,-0.1718,https://images.unsplash.com/photo-1477959858617-67f85cf4f1df?w=800
88e57ae9-bda3-4bc9-a26c-fedd8daa6922,Edinburgh,Edinburgh,Scotland,United Kingdom,heritage,Historic destination with ancient monuments and architectural marvels.,Apr-Jun,15749,8.5,7.7,55.9322,-3.2259,https://images.unsplash.com/photo-1524492412937-b28074a5d7da?w=800
966ac76d-1037-4c86-afb7-a9ffff312180,Lisbon,Lisbon,Portugal,Portugal,city,"Vibrant urban destination with culture, cuisine, and nightlife.",Apr-Jun,32928,7.1,6.3,38.7263,-9.1455,https://images.unsplash.com/photo-1477959858617-67f85cf4f1df?w=800
e955be55-f314-4dcc-acec-f28b3ee7c864,Reykjavik,Reykjavik,Iceland,Iceland,adventure,"Thrilling destination for trekking, skiing, and adventure sports.",Year-round,9306,9.1,8.5,64.157,-21.99,https://images.unsplash.com/photo-1551632811-561732d1e306?w=800
65cc2442-81bc-4073-b8d3-bc7045fb7bba,New York,New York,New York,USA,city,"Vibrant urban destination with culture, cuisine, and nightlife.",Nov-Feb,32095,8.8,7.8,40.7579,-73.956,https://images.unsplash.com/photo-1477959858617-67f85cf4f1df?w=800
02b85798-7bac-4e95-9238-e1a010c90b40,Los Angeles,Los Angeles,California,USA,city,"Vibrant urban destination with culture, cuisine, and nightlife.",Apr-Jun,28882,5.7,8.6,34.0493,-118.2285,https://images.unsplash.com/photo-1477959858617-67f85cf4f1df?w=800
f3708f77-7cbf-4bc7-a6b1-89ccc1f6db0e,Miami,Miami,Florida,USA,beach,Stunning coastal destination with golden sands and azure waters.,Apr-Jun,13947,9.5,7.1,25.7931,-80.1449,https://images.unsplash.com/photo-1507525428034-b723cf961d3e?w=800
8b28333c-69f1-4ebf-a7da-165f9769e740,Cancun,Cancun,Mexico,Mexico,beach,Stunning coastal destination with golden sands and azure waters.,Jul-Sep,19401,7.1,6.5,21.1224,-86.8854,https://images.unsplash.com/photo-1507525428034-b723cf961d3e?w=800
0f36e9d3-e00d-4257-b85b-295093e0ab5b,Rio de Janeiro,Rio de Janeiro,Rio,Brazil,city,"Vibrant urban destination with culture, cuisine, and nightlife.",Jul-Sep,32730,7.5,8.2,-22.9168,-43.1469,https://images.unsplash.com/photo-1477959858617-67f85cf4f1df?w=800
8185ba7b-d528-4421-bcb0-cbcc9e9974a8,Buenos Aires,Buenos Aires,Argentina,Argentina,city,"Vibrant urban destination with culture, cuisine, and nightlife.",Oct-Mar,24903,5.9,6.2,-34.6421,-58.3543,https://images.unsplash.com/photo-1477959858617-67f85cf4f1df?w=800
63fbfb58-d6c5-41f8-9c02-abd3c6aa848d,Machu Picchu,Machu Picchu,Cusco,Peru,heritage,Historic destination with ancient monuments and architectural marvels.,Year-round,19515,9.5,8.2,-13.1588,-72.5537,https://images.unsplash.com/photo-1524492412937-b28074a5d7da?w=800
f5c29072-7673-4444-a002-18e39ac74791,Cape Town,Cape Town,Western Cape,South Africa,city,"Vibrant urban destination with culture, cuisine, and nightlife.",Nov-Feb,26988,6.9,8.6,-33.9124,18.4501,https://images.unsplash.com/photo-1477959858617-67f85cf4f1df?w=800
331f7701-76a1-440a-8a06-395c9c63afe9,Nairobi,Nairobi,Nairobi,Kenya,city,"Vibrant urban destination with culture, cuisine, and nightlife.",Nov-Feb,18750,7.7,9.5,-1.2983,36.8417,https://images.unsplash.com/photo-1477959858617-67f85cf4f1df?w=800
b5740e98-d5b9-4a41-9f6e-5dd4bc9fd039,Zanzibar,Zanzibar,Tanzania,Tanzania,island,Tropical island paradise with turquoise waters.,Oct-Mar,16891,9.4,7.9,-6.192,39.1684,https://images.unsplash.com/photo-1506197603052-3cc9c3a201bd?w=800
b13b4813-d6b8-45ae-9a26-e7ff5561f0e8,Sydney,Sydney,New South Wales,Australia,city,"Vibrant urban destination with culture, cuisine, and nightlife.",Year-round,10448,7.7,5.4,-33.8196,151.2506,https://images.unsplash.com/photo-1477959858617-67f85cf4f1df?w=800
0e59aba5-abbc-4c0d-b987-0370fd248b15,Melbourne,Melbourne,Victoria,Australia,city,"Vibrant urban destination with culture, cuisine, and nightlife.",Jul-Sep,13849,8.1,5.7,-37.7703,144.9423,https://images.unsplash.com/photo-1477959858617-67f85cf4f1df?w=800
f5ee04ec-fb1a-4a4c-993f-99ada9d9fb88,Queenstown,Queenstown,Otago,New Zealand,adventure,"Thrilling destination for trekking, skiing, and adventure sports.",Apr-Jun,21614,8.8,9.7,-45.0568,168.6677,https://images.unsplash.com/photo-1551632811-561732d1e306?w=800
7d8c83dd-37bb-4a92-9ef0-195e72c16a6f,Maldives,Maldives,South Asia,Maldives,island,Tropical island paradise with turquoise waters.,Jul-Sep,27491,9.2,7.4,3.2407,73.2571,https://images.unsplash.com/photo-1506197603052-3cc9c3a201bd?w=800
3392b4e9-5105-4cac-8105-cb910db9e37f,Seychelles,Seychelles,Mahe,Seychelles,island,Tropical island paradise with turquoise waters.,Apr-Jun,42193,6.9,8.8,-4.7029,55.4423,https://images.unsplash.com/photo-1506197603052-3cc9c3a201bd?w=800
d86b486c-d732-4a14-8b0c-ddb138a7e978,Mauritius,Mauritius,Port Louis,Mauritius,island,Tropical island paradise with turquoise waters.,Apr-Jun,53465,7.8,8.2,-20.3119,57.5469,https://images.unsplash.com/photo-1506197603052-3cc9c3a201bd?w=800
073b8678-9854-47ac-9af8-9f3950d65f92,Goa (2),Goa,Goa,India,beach,Stunning coastal destination with golden sands and azure waters.,Jul-Sep,19309,6.8,8.7,15.287,74.1673,https://images.unsplash.com/photo-1507525428034-b723cf961d3e?w=800
bb596427-33d8-42e2-b459-05018e98c67f,Manali (2),Manali,Himachal Pradesh,India,hill_station,Scenic mountain retreat with breathtaking valley views.,Nov-Feb,16427,6.5,6.8,32.2752,77.1798,https://images.unsplash.com/photo-1506905925346-21bda4d32df4?w=800
46310dca-8881-43d9-84fd-3aec609b222b,Shimla (2),Shimla,Himachal Pradesh,India,hill_station,Scenic mountain retreat with breathtaking valley views.,Apr-Jun,17201,7.4,9.4,31.0929,77.2222,https://images.unsplash.com/photo-1506905925346-21bda4d32df4?w=800
dd29109d-54cc-4051-ac77-0c5aa72cfc3c,Dharamshala (2),Dharamshala,Himachal Pradesh,India,hill_station,Scenic mountain retreat with breathtaking valley views.,Nov-Feb,13115,9.4,5.6,32.2655,76.3066,https://images.unsplash.com/photo-1506905925346-21bda4d32df4?w=800
88049f45-6b63-4fd3-99c6-760ce91738bc,Kasol (2),Kasol,Himachal Pradesh,India,village,Charming rustic village with authentic local culture.,Oct-Mar,5606,5.9,9.4,31.9636,77.2789,https://images.unsplash.com/photo-1464822759023-fed622ff2c3b?w=800
1d6a6857-df7c-4b8c-a335-b47829923ec6,Spiti Valley (2),Spiti Valley,Himachal Pradesh,India,adventure,"Thrilling destination for trekking, skiing, and adventure sports.",Nov-Feb,10451,7.4,9.7,32.23,78.0551,https://images.unsplash.com/photo-1551632811-561732d1e306?w=800
f6b0ba64-8373-469f-a303-d8aed77fa022,Dalhousie (2),Dalhousie,Himachal Pradesh,India,hill_station,Scenic mountain retreat with breathtaking valley views.,Oct-Mar,18955,6.8,8.2,32.5417,76.0215,https://images.unsplash.com/photo-1506905925346-21bda4d32df4?w=800
b47e10dc-16e1-4ff5-b365-6148f92f9214,Jaipur (2),Jaipur,Rajasthan,India,heritage,Historic destination with ancient monuments and architectural marvels.,Jul-Sep,20293,7.7,8.0,26.8859,75.8057,https://images.unsplash.com/photo-1524492412937-b28074a5d7da?w=800
bab599ca-7a34-466a-bc90-508a7dc07f27,Jodhpur (2),Jodhpur,Rajasthan,India,heritage,Historic destination with ancient monuments and architectural marvels.,Apr-Jun,9727,8.5,7.1,26.1987,73.0377,https://images.unsplash.com/photo-1524492412937-b28074a5d7da?w=800
bcb768ae-2343-4988-a189-ef1be339fff2,Udaipur (2),Udaipur,Rajasthan,India,heritage,Historic destination with ancient monuments and architectural marvels.,Oct-Mar,13269,6.2,6.4,24.5383,73.6949,https://images.unsplash.com/photo-1524492412937-b28074a5d7da?w=800
2fd6c027-911a-4c42-b1be-2401677e0cb6,Jaisalmer (2),Jaisalmer,Rajasthan,India,desert,Vast desert with golden dunes and starry nights.,Oct-Mar,10806,6.9,7.1,26.8901,70.8995,https://images.unsplash.com/photo-1509316785289-025f5b846b35?w=800
49cb7ba4-ac76-4186-bae1-6ebcba24531d,Pushkar (2),Pushkar,Rajasthan,India,religious,Sacred pilgrimage site with spiritual significance.,Nov-Feb,5785,6.2,7.9,26.4782,74.5693,https://images.unsplash.com/photo-1545126218-ab2e43f54571?w=800
11cb5a43-24c2-4824-be49-cf25ae12e1dc,Bikaner (2),Bikaner,Rajasthan,India,heritage,Historic destination with ancient monuments and architectural marvels.,Jul-Sep,20955,7.8,6.1,28.0367,73.3079,https://images.unsplash.com/photo-1524492412937-b28074a5d7da?w=800
f9c72eac-0e9c-48d6-a2aa-fad235499e99,Mount Abu (2),Mount Abu,Rajasthan,India,hill_station,Scenic mountain retreat with breathtaking valley views.,Oct-Mar,19727,8.7,9.3,24.6104,72.6814,https://images.unsplash.com/photo-1506905925346-21bda4d32df4?w=800
e4c4e7fd-14cd-4ac8-8a72-b73dc68821c1,Ranthambore (2),Ranthambore,Rajasthan,India,national_park,Protected wildlife sanctuary with diverse fauna.,Jul-Sep,10661,9.5,6.4,26.0635,76.5216,https://images.unsplash.com/photo-1516026672322-bc52d61a55d5?w=800
af32599d-eea0-4d45-b50e-fab949741257,Kochi (2),Kochi,Kerala,India,city,"Vibrant urban destination with culture, cuisine, and nightlife.",Jul-Sep,37698,6.7,9.8,9.9665,76.228,https://images.unsplash.com/photo-1477959858617-67f85cf4f1df?w=800
cad95773-0d3e-464e-9a0e-61bc027241b1,Munnar (2),Munnar,Kerala,India,hill_station,Scenic mountain retreat with breathtaking valley views.,Jul-Sep,14370,6.9,6.4,10.1091,77.0117,https://images.unsplash.com/photo-1506905925346-21bda4d32df4?w=800
85cafe87-59f7-4391-9db2-317a704a63a6,Alleppey (2),Alleppey,Kerala,India,backwater,Serene backwater destination with houseboat stays.,Jul-Sep,16994,5.5,9.2,9.5259,76.3862,https://images.unsplash.com/photo-1602002418082-a4443e081dd1?w=800
1b60fa46-c4be-4eff-a5db-7cbcd66f320b,Thekkady (2),Thekkady,Kerala,India,national_park,Protected wildlife sanctuary with diverse fauna.,Year-round,17208,7.5,9.3,9.5786,77.1899,https://images.unsplash.com/photo-1516026672322-bc52d61a55d5?w=800
97f42476-459b-4701-b662-2b8d8a36f2c2,Kovalam (2),Kovalam,Kerala,India,beach,Stunning coastal destination with golden sands and azure waters.,Year-round,19544,6.4,5.9,8.3755,77.0043,https://images.unsplash.com/photo-1507525428034-b723cf961d3e?w=800
d249fbf1-8df3-4a17-a72c-b7dacf0a6419,Varkala (2),Varkala,Kerala,India,beach,Stunning coastal destination with golden sands and azure waters.,Nov-Feb,11183,9.1,8.1,8.7188,76.7104,https://images.unsplash.com/photo-1507525428034-b723cf961d3e?w=800
17fe679e-8774-4932-9115-de671b5c593a,Wayanad (2),Wayanad,Kerala,India,nature,Pristine natural destination with lush landscapes and wildlife.,Year-round,10977,8.4,5.4,11.6649,76.1567,https://images.unsplash.com/photo-1441974231531-c6227db76b6e?w=800
440d97fc-9d57-47a4-a1d9-99dfd9cd7bb5,Bangalore (2),Bangalore,Karnataka,India,city,"Vibrant urban destination with culture, cuisine, and nightlife.",Nov-Feb,16579,6.0,7.6,13.0187,77.5977,https://images.unsplash.com/photo-1477959858617-67f85cf4f1df?w=800
68a55ad7-7c6a-45fb-a8f5-2d339d71ef21,Mysore (2),Mysore,Karnataka,India,heritage,Historic destination with ancient monuments and architectural marvels.,Apr-Jun,19606,6.2,9.4,12.3402,76.6861,https://images.unsplash.com/photo-1524492412937-b28074a5d7da?w=800
97011fc8-2370-4448-a5c3-f17d6e83024e,Coorg (2),Coorg,Karnataka,India,hill_station,Scenic mountain retreat with breathtaking valley views.,Apr-Jun,17231,9.0,8.9,12.4212,75.6957,https://images.unsplash.com/photo-1506905925346-21bda4d32df4?w=800
f20638eb-75b7-439c-b671-18030eb2b289,Hampi (2),Hampi,Karnataka,India,heritage,Historic destination with ancient monuments and architectural marvels.,Nov-Feb,20092,8.2,8.2,15.3247,76.4946,https://images.unsplash.com/photo-1524492412937-b28074a5d7da?w=800
f7e60a6e-d58e-48ed-b60b-5bf44a593665,Gokarna (2),Gokarna,Karnataka,India,beach,Stunning coastal destination with golden sands and azure waters.,Year-round,19985,5.9,6.9,14.5243,74.2812,https://images.unsplash.com/photo-1507525428034-b723cf961d3e?w=800
293cf04e-fe41-43b2-a681-b0be27cd0c85,Chikmagalur (2),Chikmagalur,Karnataka,India,hill_station,Scenic mountain retreat with breathtaking valley views.,Apr-Jun,16023,8.5,6.3,13.3042,75.7859,https://images.unsplash.com/photo-1506905925346-21bda4d32df4?w=800
7dd3cfd6-d2da-40a7-ae51-85d4026353ce,Chennai (2),Chennai,Tamil Nadu,India,city,"Vibrant urban destination with culture, cuisine, and nightlife.",Apr-Jun,13550,8.2,7.3,13.0947,80.315,https://images.unsplash.com/photo-1477959858617-67f85cf4f1df?w=800
f7b40749-0a94-4c49-ba98-0d020d412c54,Ooty (2),Ooty,Tamil Nadu,India,hill_station,Scenic mountain retreat with breathtaking valley views.,Apr-Jun,19995,7.9,8.1,11.4199,76.6896,https://images.unsplash.com/photo-1506905925346-21bda4d32df4?w=800
83a17754-156c-4263-8bf2-b4b5ec641c87,Kodaikanal (2),Kodaikanal,Tamil Nadu,India,hill_station,Scenic mountain retreat with breathtaking valley views.,Apr-Jun,15637,7.1,5.7,10.2827,77.4696,https://images.unsplash.com/photo-1506905925346-21bda4d32df4?w=800
44bdf9cf-3a0d-4ef7-a4c9-6eee166173ab,Mahabalipuram (2),Mahabalipuram,Tamil Nadu,India,heritage,Historic destination with ancient monuments and architectural marvels.,Jul-Sep,7902,5.9,9.3,12.5798,80.1882,https://images.unsplash.com/photo-1524492412937-b28074a5d7da?w=800
95ac2e5b-8ca2-4ec1-a4a0-9b558109708c,Rameswaram (2),Rameswaram,Tamil Nadu,India,religious,Sacred pilgrimage site with spiritual significance.,Year-round,9866,7.8,8.5,9.3261,79.3284,https://images.unsplash.com/photo-1545126218-ab2e43f54571?w=800
9bf2d7b9-bb1a-4dfc-b02b-a231ea745f64,Madurai (2),Madurai,Tamil Nadu,India,religious,Sacred pilgrimage site with spiritual significance.,Jul-Sep,13086,7.1,9.6,9.8785,78.1069,https://images.unsplash.com/photo-1545126218-ab2e43f54571?w=800
6c620321-14f7-4620-9246-4629ec6decc7,Mumbai (2),Mumbai,Maharashtra,India,city,"Vibrant urban destination with culture, cuisine, and nightlife.",Jul-Sep,24571,9.3,9.1,19.0359,72.8963,https://images.unsplash.com/photo-1477959858617-67f85cf4f1df?w=800
e25f4ff8-70e9-4b61-bef5-009bc26eae5a,Pune (2),Pune,Maharashtra,India,city,"Vibrant urban destination with culture, cuisine, and nightlife.",Year-round,39546,9.4,6.7,18.5102,73.8257,https://images.unsplash.com/photo-1477959858617-67f85cf4f1df?w=800
37cb6769-cbef-44ac-a8d1-c27051f8425c,Aurangabad (2),Aurangabad,Maharashtra,India,heritage,Historic destination with ancient monuments and architectural marvels.,Oct-Mar,21548,8.9,7.2,19.8925,75.3575,https://images.unsplash.com/photo-1524492412937-b28074a5d7da?w=800
e111bcfb-051a-4fd8-976e-eac068de4e74,Lonavala (2),Lonavala,Maharashtra,India,hill_station,Scenic mountain retreat with breathtaking valley views.,Year-round,5349,5.7,6.6,18.8046,73.4378,https://images.unsplash.com/photo-1506905925346-21bda4d32df4?w=800
eaff0adf-bc55-4c07-9bce-68269fd884d7,Mahabaleshwar (2),Mahabaleshwar,Maharashtra,India,hill_station,Scenic mountain retreat with breathtaking valley views.,Nov-Feb,6124,8.8,7.7,17.9321,73.6899,https://images.unsplash.com/photo-1506905925346-21bda4d32df4?w=800
510f2227-9294-436c-8055-98a094db5929,Nasik (2),Nasik,Maharashtra,India,religious,Sacred pilgrimage site with spiritual significance.,Nov-Feb,8383,8.6,8.8,20.0071,73.7675,https://images.unsplash.com/photo-1545126218-ab2e43f54571?w=800
ab925341-7cb5-45e2-b3e7-e147f60e6a16,Agra (2),Agra,Uttar Pradesh,India,heritage,Historic destination with ancient monuments and architectural marvels.,Nov-Feb,8129,7.7,8.8,27.1377,78.0447,https://images.unsplash.com/photo-1524492412937-b28074a5d7da?w=800
ee14ed11-303c-4fb2-a791-28f0eafe673c,Varanasi (2),Varanasi,Uttar Pradesh,India,religious,Sacred pilgrimage site with spiritual significance.,Nov-Feb,3243,6.9,8.8,25.3265,82.9255,https://images.unsplash.com/photo-1545126218-ab2e43f54571?w=800
5e651115-9c48-4a5e-a096-65651e5d8ac9,Lucknow (2),Lucknow,Uttar Pradesh,India,city,"Vibrant urban destination with culture, cuisine, and nightlife.",Apr-Jun,11717,6.0,7.0,26.8081,80.9026,https://images.unsplash.com/photo-1477959858617-67f85cf4f1df?w=800
89864a3b-8ef4-4422-9953-353446e59ec3,Mathura (2),Mathura,Uttar Pradesh,India,religious,Sacred pilgrimage site with spiritual significance.,Jul-Sep,8931,7.6,5.5,27.4928,77.7182,https://images.unsplash.com/photo-1545126218-ab2e43f54571?w=800
e953e2ab-0468-4728-9bed-224084956710,Vrindavan (2),Vrindavan,Uttar Pradesh,India,religious,Sacred pilgrimage site with spiritual significance.,Oct-Mar,14915,8.6,9.2,27.5733,77.7,https://images.unsplash.com/photo-1545126218-ab2e43f54571?w=800
b760f03f-a245-4ef0-b226-d0f285e05d44,Ayodhya (2),Ayodhya,Uttar Pradesh,India,religious,Sacred pilgrimage site with spiritual significance.,Oct-Mar,3996,9.5,9.1,26.7848,82.1606,https://images.unsplash.com/photo-1545126218-ab2e43f54571?w=800
b51f9362-93f3-4151-a61e-90baa347f67e,Ahmedabad (2),Ahmedabad,Gujarat,India,city,"Vibrant urban destination with culture, cuisine, and nightlife.",Jul-Sep,12408,9.1,6.5,22.9873,72.534,https://images.unsplash.com/photo-1477959858617-67f85cf4f1df?w=800
b5911ec2-eaa0-4d23-a6f8-f9e785df16a5,Rann of Kutch (2),Rann of Kutch,Gujarat,India,desert,Vast desert with golden dunes and starry nights.,Year-round,16372,7.8,8.4,23.7218,70.8119,https://images.unsplash.com/photo-1509316785289-025f5b846b35?w=800
0163ccd4-1e52-4bb8-9814-0cbb0e7c33db,Somnath (2),Somnath,Gujarat,India,religious,Sacred pilgrimage site with spiritual significance.,Apr-Jun,10433,7.5,7.1,20.9299,70.3456,https://images.unsplash.com/photo-1545126218-ab2e43f54571?w=800
f9d1fbc6-8217-4665-829a-dd679790fa33,Dwarka (2),Dwarka,Gujarat,India,religious,Sacred pilgrimage site with spiritual significance.,Year-round,14810,9.0,7.1,22.283,68.9599,https://images.unsplash.com/photo-1545126218-ab2e43f54571?w=800
39004993-b250-4388-8093-139bed728974,Rishikesh (2),Rishikesh,Uttarakhand,India,religious,Sacred pilgrimage site with spiritual significance.,Jul-Sep,9532,7.2,5.5,30.0796,78.2841,https://images.unsplash.com/photo-1545126218-ab2e43f54571?w=800
34427e71-dc12-43d6-a988-258f38700c63,Haridwar (2),Haridwar,Uttarakhand,India,religious,Sacred pilgrimage site with spiritual significance.,Apr-Jun,5500,8.2,7.3,29.9048,78.1227,https://images.unsplash.com/photo-1545126218-ab2e43f54571?w=800
ef51c781-b8df-4a38-b96b-b29e79d8014e,Nainital (2),Nainital,Uttarakhand,India,hill_station,Scenic mountain retreat with breathtaking valley views.,Jul-Sep,6582,8.5,6.8,29.3433,79.4196,https://images.unsplash.com/photo-1506905925346-21bda4d32df4?w=800
55280185-4223-4ede-a68b-dd3a97032716,Mussoorie (2),Mussoorie,Uttarakhand,India,hill_station,Scenic mountain retreat with breathtaking valley views.,Year-round,14202,6.8,5.6,30.4452,78.0829,https://images.unsplash.com/photo-1506905925346-21bda4d32df4?w=800
7ae57690-226d-4769-8a38-70ebe93864c9,Jim Corbett (2),Jim Corbett,Uttarakhand,India,national_park,Protected wildlife sanctuary with diverse fauna.,Jul-Sep,19222,9.2,5.2,29.5088,78.7559,https://images.unsplash.com/photo-1516026672322-bc52d61a55d5?w=800
fbb1dcba-b44f-46ea-bcbe-c42de6a8ff12,Auli (2),Auli,Uttarakhand,India,ski_resort,Premier ski destination with world-class slopes.,Oct-Mar,30937,7.5,5.7,30.5225,79.5997,https://images.unsplash.com/photo-1467809941588-68d5c9e3c9fd?w=800
686b08be-692f-4d77-8d4b-529d82621f5e,Kedarnath (2),Kedarnath,Uttarakhand,India,religious,Sacred pilgrimage site with spiritual significance.,Apr-Jun,12113,7.0,8.7,30.7426,79.0976,https://images.unsplash.com/photo-1545126218-ab2e43f54571?w=800
af827ee0-90ed-45ad-b282-26eb3732bece,Badrinath (2),Badrinath,Uttarakhand,India,religious,Sacred pilgrimage site with spiritual significance.,Year-round,13186,8.0,8.1,30.6959,79.5367,https://images.unsplash.com/photo-1545126218-ab2e43f54571?w=800
1b2a71a9-7de3-43f1-ba8c-21dca46a8983,Khajuraho (2),Khajuraho,Madhya Pradesh,India,heritage,Historic destination with ancient monuments and architectural marvels.,Apr-Jun,6474,6.2,8.4,24.8127,79.9039,https://images.unsplash.com/photo-1524492412937-b28074a5d7da?w=800
6647d32d-d78e-44d5-820b-e8df86388fca,Bhopal (2),Bhopal,Madhya Pradesh,India,city,"Vibrant urban destination with culture, cuisine, and nightlife.",Oct-Mar,15944,9.0,7.7,23.25,77.3768,https://images.unsplash.com/photo-1477959858617-67f85cf4f1df?w=800
9acbed8d-7273-4db2-9c81-7666683e396e,Bandhavgarh (2),Bandhavgarh,Madhya Pradesh,India,national_park,Protected wildlife sanctuary with diverse fauna.,Oct-Mar,6503,8.5,6.0,23.7143,81.0188,https://images.unsplash.com/photo-1516026672322-bc52d61a55d5?w=800
c25c5f8b-5ecc-48f2-9503-dc0957bf4877,Orchha (2),Orchha,Madhya Pradesh,India,heritage,Historic destination with ancient monuments and architectural marvels.,Apr-Jun,11105,8.4,8.7,25.3587,78.5997,https://images.unsplash.com/photo-1524492412937-b28074a5d7da?w=800
c8fc24a2-5bb6-4375-9fca-b568df715ce1,Panchmarhi (2),Panchmarhi,Madhya Pradesh,India,hill_station,Scenic mountain retreat with breathtaking valley views.,Oct-Mar,7549,6.1,8.0,22.485,78.4124,https://images.unsplash.com/photo-1506905925346-21bda4d32df4?w=800
68ad41a0-7af2-4738-ba46-34007895eac9,Kolkata (2),Kolkata,West Bengal,India,city,"Vibrant urban destination with culture, cuisine, and nightlife.",Jul-Sep,25914,7.9,7.0,22.5442,88.3651,https://images.unsplash.com/photo-1477959858617-67f85cf4f1df?w=800
32367081-c57a-4998-b98d-39258e123047,Darjeeling (2),Darjeeling,West Bengal,India,hill_station,Scenic mountain retreat with breathtaking valley views.,Apr-Jun,12043,5.9,8.3,27.0453,88.2654,https://images.unsplash.com/photo-1506905925346-21bda4d32df4?w=800
dda777da-b3c8-47b9-8117-b25732fbb715,Sundarbans (2),Sundarbans,West Bengal,India,national_park,Protected wildlife sanctuary with diverse fauna.,Apr-Jun,5744,6.4,9.7,21.9052,88.8689,https://images.unsplash.com/photo-1516026672322-bc52d61a55d5?w=800
07873030-c923-477d-81ad-141a3aa9066f,Puri (2),Puri,Odisha,India,religious,Sacred pilgrimage site with spiritual significance.,Nov-Feb,5248,8.6,6.4,19.7755,85.8309,https://images.unsplash.com/photo-1545126218-ab2e43f54571?w=800
0bf5af00-e2ac-49b1-bef7-d75c2d6d5476,Bhubaneswar (2),Bhubaneswar,Odisha,India,heritage,Historic destination with ancient monuments and architectural marvels.,Jul-Sep,8878,6.0,7.6,20.2691,85.8304,https://images.unsplash.com/photo-1524492412937-b28074a5d7da?w=800
808baf3b-5046-4cf2-9d45-2e52fc45bdb9,Konark (2),Konark,Odisha,India,heritage,Historic destination with ancient monuments and architectural marvels.,Apr-Jun,7180,7.1,8.6,19.8812,86.0905,https://images.unsplash.com/photo-1524492412937-b28074a5d7da?w=800
26310490-f6c7-4c65-9d36-e72188feb8df,Hyderabad (2),Hyderabad,Telangana,India,city,"Vibrant urban destination with culture, cuisine, and nightlife.",Oct-Mar,38249,6.8,7.1,17.3754,78.5007,https://images.unsplash.com/photo-1477959858617-67f85cf4f1df?w=800
b4fa6464-b70a-4235-adfb-83713a6598ca,Tirupati (2),Tirupati,Andhra Pradesh,India,religious,Sacred pilgrimage site with spiritual significance.,Apr-Jun,4887,7.1,9.6,13.596,79.464,https://images.unsplash.com/photo-1545126218-ab2e43f54571?w=800
72df58ac-f2d9-4946-8e13-d25dddd30800,Visakhapatnam (2),Visakhapatnam,Andhra Pradesh,India,beach,Stunning coastal destination with golden sands and azure waters.,Jul-Sep,19857,5.9,9.1,17.6611,83.2274,https://images.unsplash.com/photo-1507525428034-b723cf961d3e?w=800
3b9a3086-e270-4172-9e74-6a2e174e4a2f,Guwahati (2),Guwahati,Assam,India,city,"Vibrant urban destination with culture, cuisine, and nightlife.",Year-round,12577,7.1,6.5,26.1285,91.7195,https://images.unsplash.com/photo-1477959858617-67f85cf4f1df?w=800
fcc5b073-5bdd-4087-a7b5-a8b3d4205daa,Kaziranga (2),Kaziranga,Assam,India,national_park,Protected wildlife sanctuary with diverse fauna.,Nov-Feb,6251,7.5,5.5,26.5785,93.2117,https://images.unsplash.com/photo-1516026672322-bc52d61a55d5?w=800
a00f6862-8f39-4fe7-9f6a-545338a6a2c3,Shillong (2),Shillong,Meghalaya,India,hill_station,Scenic mountain retreat with breathtaking valley views.,Apr-Jun,10752,8.4,8.9,25.6103,91.8669,https://images.unsplash.com/photo-1506905925346-21bda4d32df4?w=800
f1cb0ec9-50e3-46ff-ac11-b7ea2727a4ce,Cherrapunji (2),Cherrapunji,Meghalaya,India,nature,Pristine natural destination with lush landscapes and wildlife.,Nov-Feb,9193,6.3,7.9,25.3107,91.7494,https://images.unsplash.com/photo-1441974231531-c6227db76b6e?w=800
7fad66cc-a427-4791-8b63-89954cdf6942,Gangtok (2),Gangtok,Sikkim,India,hill_station,Scenic mountain retreat with breathtaking valley views.,Nov-Feb,17662,8.0,7.2,27.3378,88.6217,https://images.unsplash.com/photo-1506905925346-21bda4d32df4?w=800
51930853-8f78-47d8-a0f8-a1d1e5c867d9,Leh (2),Leh,Ladakh,India,adventure,"Thrilling destination for trekking, skiing, and adventure sports.",Year-round,29069,8.0,8.0,34.189,77.5898,https://images.unsplash.com/photo-1551632811-561732d1e306?w=800
3e76bc0c-3046-43d1-8b5d-4857f05a0000,Srinagar (2),Srinagar,Jammu and Kashmir,India,nature,Pristine natural destination with lush landscapes and wildlife.,Nov-Feb,12205,5.8,7.1,34.064,74.7748,https://images.unsplash.com/photo-1441974231531-c6227db76b6e?w=800
460cd08e-5378-48a6-ad1e-dc38d00feebd,Amritsar (2),Amritsar,Punjab,India,religious,Sacred pilgrimage site with spiritual significance.,Oct-Mar,8766,7.5,6.5,31.6292,74.828,https://images.unsplash.com/photo-1545126218-ab2e43f54571?w=800
ff051d3f-df25-4e09-87ae-c7f8e807c7e9,Chandigarh (2),Chandigarh,Punjab,India,city,"Vibrant urban destination with culture, cuisine, and nightlife.",Apr-Jun,12514,8.1,9.7,30.6923,76.7888,https://images.unsplash.com/photo-1477959858617-67f85cf4f1df?w=800
e09e2148-8370-481f-9486-e71629f9acf7,Port Blair (2),Port Blair,Andaman,India,island,Tropical island paradise with turquoise waters.,Jul-Sep,45324,7.8,9.6,11.6473,92.6806,https://images.unsplash.com/photo-1506197603052-3cc9c3a201bd?w=800
38e1d406-0abc-4bb9-aecd-ade29b514c0f,Havelock Island (2),Havelock Island,Andaman,India,island,Tropical island paradise with turquoise waters.,Year-round,57718,6.3,7.9,12.0219,93.0327,https://images.unsplash.com/photo-1506197603052-3cc9c3a201bd?w=800
f4401fe7-396b-49dd-9f93-3e2a44a55346,Vaishno Devi (2),Vaishno Devi,Jammu and Kashmir,India,religious,Sacred pilgrimage site with spiritual significance.,Jul-Sep,4695,8.7,9.0,33.0778,74.9105,https://images.unsplash.com/photo-1545126218-ab2e43f54571?w=800
2dc8c0f8-43e0-4d05-9023-9b2e58d021ad,Bodh Gaya (2),Bodh Gaya,Bihar,India,religious,Sacred pilgrimage site with spiritual significance.,Nov-Feb,3641,6.5,7.1,24.69,84.9936,https://images.unsplash.com/photo-1545126218-ab2e43f54571?w=800
c6c78b17-03d8-4363-9431-3d7d70f70c26,Nalanda (2),Nalanda,Bihar,India,heritage,Historic destination with ancient monuments and architectural marvels.,Nov-Feb,11962,7.0,6.4,25.1275,85.428,https://images.unsplash.com/photo-1524492412937-b28074a5d7da?w=800
fddb422b-82c0-4392-a861-d4b28f04fc28,Dehradun (2),Dehradun,Uttarakhand,India,city,"Vibrant urban destination with culture, cuisine, and nightlife.",Year-round,11715,8.7,8.1,30.2731,77.9917,https://images.unsplash.com/photo-1477959858617-67f85cf4f1df?w=800
81a0c645-cd63-415b-9c40-efe7143aef3b,Bali (2),Bali,Bali,Indonesia,beach,Stunning coastal destination with golden sands and azure waters.,Jul-Sep,17310,6.5,9.1,-8.2941,115.1023,https://images.unsplash.com/photo-1507525428034-b723cf961d3e?w=800
4d926b06-9bd3-4734-9606-879c3a17c94c,Bangkok (2),Bangkok,Bangkok,Thailand,city,"Vibrant urban destination with culture, cuisine, and nightlife.",Nov-Feb,20923,5.8,8.2,13.798,100.4828,https://images.unsplash.com/photo-1477959858617-67f85cf4f1df?w=800
c556ac8b-7552-44de-9215-4551f5b859be,Phuket (2),Phuket,Phuket,Thailand,beach,Stunning coastal destination with golden sands and azure waters.,Jul-Sep,12225,7.9,9.5,7.8614,98.38,https://images.unsplash.com/photo-1507525428034-b723cf961d3e?w=800
18b07541-19dd-44a3-9070-dda8c71868a7,Chiang Mai (2),Chiang Mai,Chiang Mai,Thailand,city,"Vibrant urban destination with culture, cuisine, and nightlife.",Apr-Jun,36646,6.0,8.4,18.833,99.035,https://images.unsplash.com/photo-1477959858617-67f85cf4f1df?w=800
3652ce38-d3e3-4629-a46e-4a06c29147f9,Singapore (2),Singapore,Singapore,Singapore,city,"Vibrant urban destination with culture, cuisine, and nightlife.",Year-round,13062,8.1,7.0,1.3383,103.8061,https://images.unsplash.com/photo-1477959858617-67f85cf4f1df?w=800
8c332aa4-3b42-497d-976e-f81ed449c4c0,Kuala Lumpur (2),Kuala Lumpur,KL,Malaysia,city,"Vibrant urban destination with culture, cuisine, and nightlife.",Nov-Feb,17018,6.9,8.7,3.1082,101.7369,https://images.unsplash.com/photo-1477959858617-67f85cf4f1df?w=800
aa9aeefa-2aeb-4b2f-b2dc-5874df65b97b,Ho Chi Minh City (2),Ho Chi Minh City,Vietnam,Vietnam,city,"Vibrant urban destination with culture, cuisine, and nightlife.",Nov-Feb,12528,6.7,8.8,10.8239,106.6337,https://images.unsplash.com/photo-1477959858617-67f85cf4f1df?w=800
10e6fdd1-a827-435b-af82-f1dce5d20505,Hanoi (2),Hanoi,Hanoi,Vietnam,heritage,Historic destination with ancient monuments and architectural marvels.,Year-round,6618,8.1,9.2,21.0403,105.8639,https://images.unsplash.com/photo-1524492412937-b28074a5d7da?w=800
207b20cf-0094-4518-b0c8-85a8654fd1a3,Ha Long Bay (2),Ha Long Bay,Quang Ninh,Vietnam,nature,Pristine natural destination with lush landscapes and wildlife.,Nov-Feb,7658,6.2,8.3,20.9226,107.2242,https://images.unsplash.com/photo-1441974231531-c6227db76b6e?w=800
ba5a1986-7b91-49b3-97f8-68f5e080f4ac,Siem Reap (2),Siem Reap,Siem Reap,Cambodia,heritage,Historic destination with ancient monuments and architectural marvels.,Jul-Sep,6715,7.1,8.2,13.3409,103.8392,https://images.unsplash.com/photo-1524492412937-b28074a5d7da?w=800
b3673db0-1756-4e62-b863-9b5a64304fbc,Manila (2),Manila,Philippines,Philippines,city,"Vibrant urban destination with culture, cuisine, and nightlife.",Apr-Jun,34654,8.5,7.2,14.6029,120.9651,https://images.unsplash.com/photo-1477959858617-67f85cf4f1df?w=800
91a01fae-f315-421e-af8c-0e4c4d00718a,Palawan (2),Palawan,Palawan,Philippines,island,Tropical island paradise with turquoise waters.,Jul-Sep,27715,7.0,9.5,9.8833,118.7346,https://images.unsplash.com/photo-1506197603052-3cc9c3a201bd?w=800
dba55de4-9e99-4d10-b011-791432a452e1,Tokyo (2),Tokyo,Tokyo,Japan,city,"Vibrant urban destination with culture, cuisine, and nightlife.",Apr-Jun,35497,7.0,7.5,35.7228,139.682,https://images.unsplash.com/photo-1477959858617-67f85cf4f1df?w=800
a8b9300a-bbe2-472f-b2ab-97633e8583ad,Kyoto (2),Kyoto,Kyoto,Japan,heritage,Historic destination with ancient monuments and architectural marvels.,Year-round,8267,9.0,5.3,35.0097,135.7552,https://images.unsplash.com/photo-1524492412937-b28074a5d7da?w=800
f1eb1226-8e8f-45c7-847f-77d97cf324e6,Osaka (2),Osaka,Osaka,Japan,city,"Vibrant urban destination with culture, cuisine, and nightlife.",Oct-Mar,33311,8.9,9.1,34.6722,135.5286,https://images.unsplash.com/photo-1477959858617-67f85cf4f1df?w=800
7739f96d-5575-43d9-bcdc-b37c2eeaa641,Seoul (2),Seoul,Seoul,South Korea,city,"Vibrant urban destination with culture, cuisine, and nightlife.",Apr-Jun,24723,9.1,5.7,37.5602,127.0226,https://images.unsplash.com/photo-1477959858617-67f85cf4f1df?w=800
a935fd46-a5a1-48cf-9f33-52e401051747,Jeju Island (2),Jeju Island,Jeju,South Korea,island,Tropical island paradise with turquoise waters.,Nov-Feb,44565,9.0,9.5,33.4911,126.5208,https://images.unsplash.com/photo-1506197603052-3cc9c3a201bd?w=800
24d2adbf-9f0b-477b-9938-75a76c14656a,Beijing (2),Beijing,Beijing,China,heritage,Historic destination with ancient monuments and architectural marvels.,Apr-Jun,9862,7.0,5.4,39.8767,116.3893,https://images.unsplash.com/photo-1524492412937-b28074a5d7da?w=800
091b4ead-bf75-4ab5-a5f6-9f67ee96e7cf,Shanghai (2),Shanghai,Shanghai,China,city,"Vibrant urban destination with culture, cuisine, and nightlife.",Oct-Mar,37498,8.4,6.6,31.195,121.4275,https://images.unsplash.com/photo-1477959858617-67f85cf4f1df?w=800
56125933-d50e-43f3-9296-f43bb444f0fc,Hong Kong (2),Hong Kong,Hong Kong,China,city,"Vibrant urban destination with culture, cuisine, and nightlife.",Jul-Sep,32808,8.8,8.6,22.3162,114.1809,https://images.unsplash.com/photo-1477959858617-67f85cf4f1df?w=800
5bfd6f74-261b-4d05-b9ad-37bbc10bd82c,Colombo (2),Colombo,Sri Lanka,Sri Lanka,city,"Vibrant urban destination with culture, cuisine, and nightlife.",Oct-Mar,10622,6.5,9.0,6.932,79.8839,https://images.unsplash.com/photo-1477959858617-67f85cf4f1df?w=800
1e0ad7a0-107a-41fe-be6c-16cd7b1957ed,Sigiriya (2),Sigiriya,Sri Lanka,Sri Lanka,heritage,Historic destination with ancient monuments and architectural marvels.,Year-round,12934,5.9,6.4,7.9371,80.7151,https://images.unsplash.com/photo-1524492412937-b28074a5d7da?w=800
4429929d-1962-4248-8f5c-b783e110282d,Kathmandu (2),Kathmandu,Bagmati,Nepal,heritage,Historic destination with ancient monuments and architectural marvels.,Jul-Sep,16468,8.7,7.2,27.6783,85.3645,https://images.unsplash.com/photo-1524492412937-b28074a5d7da?w=800
9de95e59-2325-4278-8fd6-273c58c86eba,Pokhara (2),Pokhara,Gandaki,Nepal,nature,Pristine natural destination with lush landscapes and wildlife.,Year-round,13782,5.6,7.5,28.1838,83.95,https://images.unsplash.com/photo-1441974231531-c6227db76b6e?w=800
b3db1866-68e2-45a6-82e0-cf74828b9061,Dubai (2),Dubai,Dubai,UAE,city,"Vibrant urban destination with culture, cuisine, and nightlife.",Jul-Sep,10051,8.0,6.2,25.1965,55.2872,https://images.unsplash.com/photo-1477959858617-67f85cf4f1df?w=800
57fdb110-0a55-497f-9557-604938b17ab7,Abu Dhabi (2),Abu Dhabi,Abu Dhabi,UAE,city,"Vibrant urban destination with culture, cuisine, and nightlife.",Oct-Mar,27153,9.4,5.3,24.4565,54.378,https://images.unsplash.com/photo-1477959858617-67f85cf4f1df?w=800
9704213c-0753-4a6d-9489-422b1995ebbc,Istanbul (2),Istanbul,Istanbul,Turkey,heritage,Historic destination with ancient monuments and architectural marvels.,Year-round,15079,5.6,9.2,40.9626,28.9671,https://images.unsplash.com/photo-1524492412937-b28074a5d7da?w=800
67bded9e-26e4-45ab-a879-26cde9e06261,Cappadocia (2),Cappadocia,Nevsehir,Turkey,adventure,"Thrilling destination for trekking, skiing, and adventure sports.",Apr-Jun,16311,8.5,6.7,38.5999,34.803,https://images.unsplash.com/photo-1551632811-561732d1e306?w=800
d2528e40-abfc-4959-b891-c53726f06bb5,Marrakech (2),Marrakech,Marrakech,Morocco,heritage,Historic destination with ancient monuments and architectural marvels.,Oct-Mar,18640,7.8,8.6,31.5928,-7.9959,https://images.unsplash.com/photo-1524492412937-b28074a5d7da?w=800
a2c0b3d4-e75a-427f-ad45-b500cc46fd9b,Cairo (2),Cairo,Cairo,Egypt,heritage,Historic destination with ancient monuments and architectural marvels.,Apr-Jun,19328,8.1,9.0,30.0629,31.2838,https://images.unsplash.com/photo-1524492412937-b28074a5d7da?w=800
2fc86c78-97e7-4450-b20e-83a263bc6d89,Petra (2),Petra,Jordan,Jordan,heritage,Historic destination with ancient monuments and architectural marvels.,Jul-Sep,16350,6.2,5.6,30.3501,35.4888,https://images.unsplash.com/photo-1524492412937-b28074a5d7da?w=800
32771c03-e86e-43c3-b6f2-ec848da8bbc9,Paris (2),Paris,France,France,city,"Vibrant urban destination with culture, cuisine, and nightlife.",Oct-Mar,19615,6.3,8.8,48.8952,2.3338,https://images.unsplash.com/photo-1477959858617-67f85cf4f1df?w=800
b586eadf-3a18-432d-b28f-3814e2e26a10,Rome (2),Rome,Lazio,Italy,heritage,Historic destination with ancient monuments and architectural marvels.,Apr-Jun,14444,7.1,8.9,41.9001,12.4501,https://images.unsplash.com/photo-1524492412937-b28074a5d7da?w=800
be731a97-f45c-4c01-8433-2f38507d71b4,Venice (2),Venice,Veneto,Italy,heritage,Historic destination with ancient monuments and architectural marvels.,Nov-Feb,10687,6.9,8.7,45.4774,12.2987,https://images.unsplash.com/photo-1524492412937-b28074a5d7da?w=800
87537476-a9e0-4e97-b0c0-9b0e74e37df5,Barcelona (2),Barcelona,Catalonia,Spain,city,"Vibrant urban destination with culture, cuisine, and nightlife.",Oct-Mar,36192,7.0,9.3,41.4094,2.2129,https://images.unsplash.com/photo-1477959858617-67f85cf4f1df?w=800
f7cd901e-0e1f-441d-8083-3ec2d4283bb0,Santorini (2),Santorini,Greece,Greece,island,Tropical island paradise with turquoise waters.,Jul-Sep,37219,9.4,7.4,36.393,25.5039,https://images.unsplash.com/photo-1506197603052-3cc9c3a201bd?w=800
7ee1ff50-0307-4a52-8a7f-257f07b2957d,Athens (2),Athens,Attica,Greece,heritage,Historic destination with ancient monuments and architectural marvels.,Year-round,10369,8.7,8.5,37.9417,23.7377,https://images.unsplash.com/photo-1524492412937-b28074a5d7da?w=800
0256a07e-83ac-4b07-98b3-bfd4aef358e8,Amsterdam (2),Amsterdam,Netherlands,Netherlands,city,"Vibrant urban destination with culture, cuisine, and nightlife.",Nov-Feb,27874,6.7,5.5,52.3504,4.8837,https://images.unsplash.com/photo-1477959858617-67f85cf4f1df?w=800
2d150e8a-1284-4ea7-8175-a3bac00ca9d1,Berlin (2),Berlin,Germany,Germany,city,"Vibrant urban destination with culture, cuisine, and nightlife.",Jul-Sep,29746,8.4,5.8,52.5144,13.3997,https://images.unsplash.com/photo-1477959858617-67f85cf4f1df?w=800
2c8a95b1-f0c2-4d32-9ceb-4a363476f753,Vienna (2),Vienna,Austria,Austria,heritage,Historic destination with ancient monuments and architectural marvels.,Apr-Jun,16073,9.5,6.3,48.2562,16.4186,https://images.unsplash.com/photo-1524492412937-b28074a5d7da?w=800
045daee1-6155-48c6-be02-b8c017bf1173,Prague (2),Prague,Czech Republic,Czech Republic,heritage,Historic destination with ancient monuments and architectural marvels.,Oct-Mar,16996,8.1,6.7,50.1056,14.4557,https://images.unsplash.com/photo-1524492412937-b28074a5d7da?w=800
55e68200-4250-42ac-ba9b-d63d07b02f50,Budapest (2),Budapest,Hungary,Hungary,heritage,Historic destination with ancient monuments and architectural marvels.,Oct-Mar,8339,8.9,8.3,47.4917,19.0028,https://images.unsplash.com/photo-1524492412937-b28074a5d7da?w=800
3456871e-0797-43f6-933a-7022834b76d0,Interlaken (2),Interlaken,Bern,Switzerland,adventure,"Thrilling destination for trekking, skiing, and adventure sports.",Nov-Feb,29140,7.0,6.8,46.693,7.8737,https://images.unsplash.com/photo-1551632811-561732d1e306?w=800
e38fb314-f084-43f3-b381-82c405442ac1,London (2),London,England,United Kingdom,city,"Vibrant urban destination with culture, cuisine, and nightlife.",Jul-Sep,22155,7.0,8.7,51.5148,-0.1249,https://images.unsplash.com/photo-1477959858617-67f85cf4f1df?w=800
4d371a41-4278-41b3-b56f-66bce252fd71,Edinburgh (2),Edinburgh,Scotland,United Kingdom,heritage,Historic destination with ancient monuments and architectural marvels.,Jul-Sep,11150,8.1,6.2,55.9146,-3.1647,https://images.unsplash.com/photo-1524492412937-b28074a5d7da?w=800
40539776-531d-4011-b457-74f9ecde425a,Lisbon (2),Lisbon,Portugal,Portugal,city,"Vibrant urban destination with culture, cuisine, and nightlife.",Jul-Sep,26965,7.0,7.7,38.6985,-9.1633,https://images.unsplash.com/photo-1477959858617-67f85cf4f1df?w=800
9a7d0c6a-b1a4-4f0b-9c3b-9153f8e701c9,Reykjavik (2),Reykjavik,Iceland,Iceland,adventure,"Thrilling destination for trekking, skiing, and adventure sports.",Jul-Sep,15031,9.5,6.4,64.1882,-21.9435,https://images.unsplash.com/photo-1551632811-561732d1e306?w=800
7d9e4bd8-b4d4-45b5-b38f-8dbe7eb2bfe3,New York (2),New York,New York,USA,city,"Vibrant urban destination with culture, cuisine, and nightlife.",Oct-Mar,14447,8.9,7.2,40.7527,-74.0115,https://images.unsplash.com/photo-1477959858617-67f85cf4f1df?w=800
f6390282-cdf8-409c-9347-fe0f61695f61,Los Angeles (2),Los Angeles,California,USA,city,"Vibrant urban destination with culture, cuisine, and nightlife.",Oct-Mar,36558,8.2,9.1,34.0342,-118.259,https://images.unsplash.com/photo-1477959858617-67f85cf4f1df?w=800
dd49a3a5-66c5-4d94-b9b7-65cb745a0903,Miami (2),Miami,Florida,USA,beach,Stunning coastal destination with golden sands and azure waters.,Oct-Mar,17514,9.1,9.1,25.7829,-80.1491,https://images.unsplash.com/photo-1507525428034-b723cf961d3e?w=800
33114175-0ba2-4317-8948-d4591cab2e74,Cancun (2),Cancun,Mexico,Mexico,beach,Stunning coastal destination with golden sands and azure waters.,Nov-Feb,19845,7.5,5.6,21.132,-86.8876,https://images.unsplash.com/photo-1507525428034-b723cf961d3e?w=800
9c66e362-d8fe-44a4-a480-6280c40ecd9d,Rio de Janeiro (2),Rio de Janeiro,Rio,Brazil,city,"Vibrant urban destination with culture, cuisine, and nightlife.",Jul-Sep,10861,6.9,7.7,-22.9101,-43.1246,https://images.unsplash.com/photo-1477959858617-67f85cf4f1df?w=800
ba92b22a-3634-4def-99df-fb0888bc4537,Buenos Aires (2),Buenos Aires,Argentina,Argentina,city,"Vibrant urban destination with culture, cuisine, and nightlife.",Nov-Feb,30052,9.0,5.3,-34.6139,-58.3599,https://images.unsplash.com/photo-1477959858617-67f85cf4f1df?w=800
2bdfaf15-0c5d-4bad-84e6-dcf34f6f4161,Machu Picchu (2),Machu Picchu,Cusco,Peru,heritage,Historic destination with ancient monuments and architectural marvels.,Jul-Sep,14612,7.1,7.0,-13.1556,-72.5825,https://images.unsplash.com/photo-1524492412937-b28074a5d7da?w=800
58e1a122-d907-46c0-860b-10511dbc9afd,Cape Town (2),Cape Town,Western Cape,South Africa,city,"Vibrant urban destination with culture, cuisine, and nightlife.",Apr-Jun,31048,5.8,7.2,-33.9232,18.3869,https://images.unsplash.com/photo-1477959858617-67f85cf4f1df?w=800
72fe521d-e370-450c-aff7-25df750f9e94,Nairobi (2),Nairobi,Nairobi,Kenya,city,"Vibrant urban destination with culture, cuisine, and nightlife.",Year-round,30964,7.9,8.7,-1.3292,36.8222,https://images.unsplash.com/photo-1477959858617-67f85cf4f1df?w=800
b36041d9-073b-4eff-90e0-02d58ecef4e5,Zanzibar (2),Zanzibar,Tanzania,Tanzania,island,Tropical island paradise with turquoise waters.,Oct-Mar,23137,7.6,6.5,-6.1997,39.2461,https://images.unsplash.com/photo-1506197603052-3cc9c3a201bd?w=800
18b30c7a-a8a0-4c85-ae51-89378536517b,Sydney (2),Sydney,New South Wales,Australia,city,"Vibrant urban destination with culture, cuisine, and nightlife.",Nov-Feb,21338,9.3,7.5,-33.8904,151.1672,https://images.unsplash.com/photo-1477959858617-67f85cf4f1df?w=800
618cfb1f-ce3b-44a1-a821-117170cf7ad2,Melbourne (2),Melbourne,Victoria,Australia,city,"Vibrant urban destination with culture, cuisine, and nightlife.",Nov-Feb,30809,9.3,6.3,-37.8011,144.9745,https://images.unsplash.com/photo-1477959858617-67f85cf4f1df?w=800
303d69fd-d7ab-407f-9410-f597397482e5,Queenstown (2),Queenstown,Otago,New Zealand,adventure,"Thrilling destination for trekking, skiing, and adventure sports.",Oct-Mar,24468,8.1,7.8,-45.0231,168.6297,https://images.unsplash.com/photo-1551632811-561732d1e306?w=800
c9e5ba36-633b-44e3-93ff-86d3039dd723,Maldives (2),Maldives,South Asia,Maldives,island,Tropical island paradise with turquoise waters.,Year-round,54658,6.9,9.4,3.1569,73.2571,https://images.unsplash.com/photo-1506197603052-3cc9c3a201bd?w=800
0aa36b1a-53cf-40f7-94ad-0036bdfdbc2f,Seychelles (2),Seychelles,Mahe,Seychelles,island,Tropical island paradise with turquoise waters.,Oct-Mar,17979,9.3,8.7,-4.7031,55.4631,https://images.unsplash.com/photo-1506197603052-3cc9c3a201bd?w=800
36a1db32-5110-47fd-9421-a2cd79c2c23f,Mauritius (2),Mauritius,Port Louis,Mauritius,island,Tropical island paradise with turquoise waters.,Year-round,42301,8.0,5.1,-20.3095,57.5568,https://images.unsplash.com/photo-1506197603052-3cc9c3a201bd?w=800
16bf82f7-e86a-4031-96dc-59afc8b1b79c,Goa (3),Goa,Goa,India,beach,Stunning coastal destination with golden sands and azure waters.,Apr-Jun,23825,6.5,8.9,15.2899,74.1194,https://images.unsplash.com/photo-1507525428034-b723cf961d3e?w=800
27a9f1e4-cd86-47dd-a81f-81e9092115ee,Manali (3),Manali,Himachal Pradesh,India,hill_station,Scenic mountain retreat with breathtaking valley views.,Oct-Mar,7589,7.3,7.3,32.21,77.1994,https://images.unsplash.com/photo-1506905925346-21bda4d32df4?w=800
3b533b25-d93a-4517-8010-c9bca37923bd,Shimla (3),Shimla,Himachal Pradesh,India,hill_station,Scenic mountain retreat with breathtaking valley views.,Apr-Jun,19114,8.4,8.5,31.1409,77.2209,https://images.unsplash.com/photo-1506905925346-21bda4d32df4?w=800
fba1603d-7baa-42fe-ad37-aa894e07b89e,Dharamshala (3),Dharamshala,Himachal Pradesh,India,hill_station,Scenic mountain retreat with breathtaking valley views.,Nov-Feb,17462,7.0,7.7,32.2009,76.32,https://images.unsplash.com/photo-1506905925346-21bda4d32df4?w=800
7d5a3b52-4c5c-45a4-a729-7a3779e42959,Kasol (3),Kasol,Himachal Pradesh,India,village,Charming rustic village with authentic local culture.,Apr-Jun,5683,6.5,5.5,31.9911,77.3029,https://images.unsplash.com/photo-1464822759023-fed622ff2c3b?w=800
ac376ee1-1d4d-4fc0-81b1-8c4cc3060381,Spiti Valley (3),Spiti Valley,Himachal Pradesh,India,adventure,"Thrilling destination for trekking, skiing, and adventure sports.",Year-round,21701,6.5,9.2,32.2121,78.0185,https://images.unsplash.com/photo-1551632811-561732d1e306?w=800
c25dd2c6-7786-41f9-a5ca-f43c7f22e576,Dalhousie (3),Dalhousie,Himachal Pradesh,India,hill_station,Scenic mountain retreat with breathtaking valley views.,Year-round,16814,6.8,8.7,32.5381,75.9776,https://images.unsplash.com/photo-1506905925346-21bda4d32df4?w=800
7f127ef8-ec9b-430f-8159-bba996a02fe4,Jaipur (3),Jaipur,Rajasthan,India,heritage,Historic destination with ancient monuments and architectural marvels.,Jul-Sep,20402,6.7,5.1,26.9569,75.7878,https://images.unsplash.com/photo-1524492412937-b28074a5d7da?w=800
28257e90-8ce5-4e47-b59b-5e4b51eef4d2,Jodhpur (3),Jodhpur,Rajasthan,India,heritage,Historic destination with ancient monuments and architectural marvels.,Nov-Feb,9524,7.8,5.2,26.217,73.0341,https://images.unsplash.com/photo-1524492412937-b28074a5d7da?w=800
131dee37-923c-4dbc-a423-4423d9e1ae1e,Udaipur (3),Udaipur,Rajasthan,India,heritage,Historic destination with ancient monuments and architectural marvels.,Jul-Sep,10681,7.6,9.1,24.5785,73.7507,https://images.unsplash.com/photo-1524492412937-b28074a5d7da?w=800
4f314f5e-ccf2-4644-95ef-dfc8fdef7407,Jaisalmer (3),Jaisalmer,Rajasthan,India,desert,Vast desert with golden dunes and starry nights.,Apr-Jun,18515,7.1,5.2,26.8708,70.9145,https://images.unsplash.com/photo-1509316785289-025f5b846b35?w=800
b0551bed-6b4a-444d-988d-5463bbbe77e8,Pushkar (3),Pushkar,Rajasthan,India,religious,Sacred pilgrimage site with spiritual significance.,Apr-Jun,12064,6.7,6.9,26.4849,74.556,https://images.unsplash.com/photo-1545126218-ab2e43f54571?w=800
4d5ef1f1-428f-45f3-9261-c4ecaf05b4f3,Bikaner (3),Bikaner,Rajasthan,India,heritage,Historic destination with ancient monuments and architectural marvels.,Year-round,17147,7.9,5.6,27.9826,73.2992,https://images.unsplash.com/photo-1524492412937-b28074a5d7da?w=800
1130b6db-d0e3-4234-996f-f9c9fa6bee18,Mount Abu (3),Mount Abu,Rajasthan,India,hill_station,Scenic mountain retreat with breathtaking valley views.,Apr-Jun,14139,9.3,8.6,24.5625,72.7165,https://images.unsplash.com/photo-1506905925346-21bda4d32df4?w=800
dd383113-3a62-405e-9d8c-3560a4aa90a2,Ranthambore (3),Ranthambore,Rajasthan,India,national_park,Protected wildlife sanctuary with diverse fauna.,Year-round,5659,5.7,5.7,26.0006,76.5,https://images.unsplash.com/photo-1516026672322-bc52d61a55d5?w=800
f9446d7d-ab5f-4a14-88ac-1e8020c1fea4,Kochi (3),Kochi,Kerala,India,city,"Vibrant urban destination with culture, cuisine, and nightlife.",Jul-Sep,14880,7.9,7.5,9.914,76.2786,https://images.unsplash.com/photo-1477959858617-67f85cf4f1df?w=800
e0b908e1-f57c-47c0-930c-3e5e46e0a26d,Munnar (3),Munnar,Kerala,India,hill_station,Scenic mountain retreat with breathtaking valley views.,Nov-Feb,11438,9.5,8.5,10.0691,77.0431,https://images.unsplash.com/photo-1506905925346-21bda4d32df4?w=800
b30c8b23-9406-4c3d-a2ff-da5b7671086c,Alleppey (3),Alleppey,Kerala,India,backwater,Serene backwater destination with houseboat stays.,Year-round,24051,8.3,6.4,9.5297,76.3256,https://images.unsplash.com/photo-1602002418082-a4443e081dd1?w=800
fce9c306-22cb-4991-8c66-86c3ff6fd50c,Thekkady (3),Thekkady,Kerala,India,national_park,Protected wildlife sanctuary with diverse fauna.,Oct-Mar,11824,7.8,8.8,9.6225,77.1788,https://images.unsplash.com/photo-1516026672322-bc52d61a55d5?w=800
27986d52-fd0a-492b-93f2-36546649a0c3,Kovalam (3),Kovalam,Kerala,India,beach,Stunning coastal destination with golden sands and azure waters.,Oct-Mar,23551,6.6,8.1,8.4476,76.9865,https://images.unsplash.com/photo-1507525428034-b723cf961d3e?w=800
c295eae1-b215-4917-8bd5-6ff2090046fb,Varkala (3),Varkala,Kerala,India,beach,Stunning coastal destination with golden sands and azure waters.,Nov-Feb,9682,7.8,5.8,8.7508,76.7283,https://images.unsplash.com/photo-1507525428034-b723cf961d3e?w=800
b607fa4f-d4df-491e-94c1-6c18ada79a96,Wayanad (3),Wayanad,Kerala,India,nature,Pristine natural destination with lush landscapes and wildlife.,Jul-Sep,7421,8.8,6.2,11.6927,76.1521,https://images.unsplash.com/photo-1441974231531-c6227db76b6e?w=800
a550d52c-86a4-4f35-8ee6-6957cc2a3629,Bangalore (3),Bangalore,Karnataka,India,city,"Vibrant urban destination with culture, cuisine, and nightlife.",Nov-Feb,10620,7.3,7.0,12.9629,77.565,https://images.unsplash.com/photo-1477959858617-67f85cf4f1df?w=800
29074ed4-8ae2-49c9-8c73-b1267f4a9e12,Mysore (3),Mysore,Karnataka,India,heritage,Historic destination with ancient monuments and architectural marvels.,Year-round,18697,7.9,7.3,12.3306,76.6621,https://images.unsplash.com/photo-1524492412937-b28074a5d7da?w=800
dfc3ca56-8c9a-485e-9b9f-803b41c33111,Coorg (3),Coorg,Karnataka,India,hill_station,Scenic mountain retreat with breathtaking valley views.,Nov-Feb,13498,6.3,6.6,12.4406,75.7407,https://images.unsplash.com/photo-1506905925346-21bda4d32df4?w=800
f5401f4f-dba8-4473-b04f-20c3c35a5a73,Hampi (3),Hampi,Karnataka,India,heritage,Historic destination with ancient monuments and architectural marvels.,Apr-Jun,21674,6.2,9.4,15.3192,76.4454,https://images.unsplash.com/photo-1524492412937-b28074a5d7da?w=800
046216f1-fb9d-4b44-a9cb-b372a4cdb2c0,Gokarna (3),Gokarna,Karnataka,India,beach,Stunning coastal destination with golden sands and azure waters.,Apr-Jun,23865,6.3,6.2,14.5537,74.2913,https://images.unsplash.com/photo-1507525428034-b723cf961d3e?w=800
b8e4ab61-d292-4403-a00e-47749e960a8d,Chikmagalur (3),Chikmagalur,Karnataka,India,hill_station,Scenic mountain retreat with breathtaking valley views.,Apr-Jun,17634,6.7,6.0,13.3366,75.7537,https://images.unsplash.com/photo-1506905925346-21bda4d32df4?w=800
a7e64434-b9bb-4281-b6a0-30b067e91f06,Chennai (3),Chennai,Tamil Nadu,India,city,"Vibrant urban destination with culture, cuisine, and nightlife.",Apr-Jun,28366,9.2,8.8,13.06,80.2329,https://images.unsplash.com/photo-1477959858617-67f85cf4f1df?w=800
d7e2d0d4-c0a2-43bc-bc6d-8eef0c5c3dad,Ooty (3),Ooty,Tamil Nadu,India,hill_station,Scenic mountain retreat with breathtaking valley views.,Year-round,11220,9.1,6.9,11.3909,76.7205,https://images.unsplash.com/photo-1506905925346-21bda4d32df4?w=800
6a7c862a-4194-44ff-a572-5aca9e02769b,Kodaikanal (3),Kodaikanal,Tamil Nadu,India,hill_station,Scenic mountain retreat with breathtaking valley views.,Nov-Feb,9758,5.7,9.6,10.196,77.5316,https://images.unsplash.com/photo-1506905925346-21bda4d32df4?w=800
4edb5e69-dd78-4902-96ab-12038e832ad4,Mahabalipuram (3),Mahabalipuram,Tamil Nadu,India,heritage,Historic destination with ancient monuments and architectural marvels.,Apr-Jun,18244,7.4,6.0,12.6201,80.2361,https://images.unsplash.com/photo-1524492412937-b28074a5d7da?w=800
07f70e06-53e3-4786-966a-902abed4d178,Rameswaram (3),Rameswaram,Tamil Nadu,India,religious,Sacred pilgrimage site with spiritual significance.,Apr-Jun,5249,5.9,8.6,9.2615,79.268,https://images.unsplash.com/photo-1545126218-ab2e43f54571?w=800
814a0b3c-579c-4730-ba2a-4dd0f616fcc6,Madurai (3),Madurai,Tamil Nadu,India,religious,Sacred pilgrimage site with spiritual significance.,Year-round,6697,8.1,5.3,9.9165,78.1415,https://images.unsplash.com/photo-1545126218-ab2e43f54571?w=800
db6bebe2-47b9-459f-a833-63e9814a77ac,Mumbai (3),Mumbai,Maharashtra,India,city,"Vibrant urban destination with culture, cuisine, and nightlife.",Oct-Mar,32321,8.6,5.0,19.081,72.9206,https://images.unsplash.com/photo-1477959858617-67f85cf4f1df?w=800
7ef35d4f-8939-4901-ba6c-75465f4765a3,Pune (3),Pune,Maharashtra,India,city,"Vibrant urban destination with culture, cuisine, and nightlife.",Jul-Sep,31393,9.2,9.2,18.5181,73.8266,https://images.unsplash.com/photo-1477959858617-67f85cf4f1df?w=800
e69a0d3f-8f3f-4083-a1b7-df7eba203a65,Aurangabad (3),Aurangabad,Maharashtra,India,heritage,Historic destination with ancient monuments and architectural marvels.,Apr-Jun,11262,6.6,5.3,19.9031,75.3585,https://images.unsplash.com/photo-1524492412937-b28074a5d7da?w=800
2062e364-e1ba-4451-b6a7-8518f4f8b5f6,Lonavala (3),Lonavala,Maharashtra,India,hill_station,Scenic mountain retreat with breathtaking valley views.,Nov-Feb,13767,8.5,9.1,18.7094,73.4512,https://images.unsplash.com/photo-1506905925346-21bda4d32df4?w=800
52fa7abc-4133-48d5-acb1-130f5eb44975,Mahabaleshwar (3),Mahabaleshwar,Maharashtra,India,hill_station,Scenic mountain retreat with breathtaking valley views.,Jul-Sep,19454,8.9,9.5,17.8771,73.6922,https://images.unsplash.com/photo-1506905925346-21bda4d32df4?w=800
da49c4e9-295d-4244-acad-6eb4713ec000,Nasik (3),Nasik,Maharashtra,India,religious,Sacred pilgrimage site with spiritual significance.,Jul-Sep,6052,9.2,9.6,20.0401,73.8275,https://images.unsplash.com/photo-1545126218-ab2e43f54571?w=800
fa90d2fd-9eb6-4d61-8caa-3f0f16c3b40a,Agra (3),Agra,Uttar Pradesh,India,heritage,Historic destination with ancient monuments and architectural marvels.,Oct-Mar,10888,7.8,5.5,27.225,77.9866,https://images.unsplash.com/photo-1524492412937-b28074a5d7da?w=800
5645ab10-088d-423b-8f06-61e0f229a90d,Varanasi (3),Varanasi,Uttar Pradesh,India,religious,Sacred pilgrimage site with spiritual significance.,Year-round,11590,7.5,9.5,25.3527,82.9707,https://images.unsplash.com/photo-1545126218-ab2e43f54571?w=800
57be44d7-29cd-43ab-88a7-08a7b3d09697,Lucknow (3),Lucknow,Uttar Pradesh,India,city,"Vibrant urban destination with culture, cuisine, and nightlife.",Nov-Feb,36503,6.0,5.8,26.8426,80.9219,https://images.unsplash.com/photo-1477959858617-67f85cf4f1df?w=800
8b81b629-c6fc-41f1-a5a4-7e1616359365,Mathura (3),Mathura,Uttar Pradesh,India,religious,Sacred pilgrimage site with spiritual significance.,Nov-Feb,3230,8.4,8.8,27.4992,77.6994,https://images.unsplash.com/photo-1545126218-ab2e43f54571?w=800
764f6fde-768c-4920-af20-d05726239a5f,Vrindavan (3),Vrindavan,Uttar Pradesh,India,religious,Sacred pilgrimage site with spiritual significance.,Nov-Feb,13009,8.9,9.3,27.6039,77.7057,https://images.unsplash.com/photo-1545126218-ab2e43f54571?w=800
6a89c2bc-b42f-4c4f-9b47-3073aa91db1b,Ayodhya (3),Ayodhya,Uttar Pradesh,India,religious,Sacred pilgrimage site with spiritual significance.,Oct-Mar,9567,8.2,5.9,26.7563,82.1822,https://images.unsplash.com/photo-1545126218-ab2e43f54571?w=800
a70e7de3-f8d4-46eb-88e2-1af6167704f2,Ahmedabad (3),Ahmedabad,Gujarat,India,city,"Vibrant urban destination with culture, cuisine, and nightlife.",Nov-Feb,10223,6.5,6.1,23.0479,72.6168,https://images.unsplash.com/photo-1477959858617-67f85cf4f1df?w=800
3e944c1b-a83f-4fed-a221-e724a53b3e81,Rann of Kutch (3),Rann of Kutch,Gujarat,India,desert,Vast desert with golden dunes and starry nights.,Apr-Jun,15543,8.4,5.1,23.7491,70.8215,https://images.unsplash.com/photo-1509316785289-025f5b846b35?w=800
321d094a-12d5-4458-aebd-bd01ec3172a0,Somnath (3),Somnath,Gujarat,India,religious,Sacred pilgrimage site with spiritual significance.,Oct-Mar,13941,6.0,6.5,20.8911,70.3845,https://images.unsplash.com/photo-1545126218-ab2e43f54571?w=800
b42059dc-3955-4002-8773-bbdb54a3bc1a,Dwarka (3),Dwarka,Gujarat,India,religious,Sacred pilgrimage site with spiritual significance.,Apr-Jun,14309,6.0,9.4,22.2237,68.98,https://images.unsplash.com/photo-1545126218-ab2e43f54571?w=800
9738fa6c-d179-4af8-a86c-093d48391868,Rishikesh (3),Rishikesh,Uttarakhand,India,religious,Sacred pilgrimage site with spiritual significance.,Nov-Feb,5188,7.4,7.2,30.1358,78.255,https://images.unsplash.com/photo-1545126218-ab2e43f54571?w=800
98870bff-2b84-492d-b0e0-6b1de4a3c5c2,Haridwar (3),Haridwar,Uttarakhand,India,religious,Sacred pilgrimage site with spiritual significance.,Year-round,10714,8.5,8.8,29.9783,78.1904,https://images.unsplash.com/photo-1545126218-ab2e43f54571?w=800
0269d970-61a0-4363-925a-9de5f8e66ee7,Nainital (3),Nainital,Uttarakhand,India,hill_station,Scenic mountain retreat with breathtaking valley views.,Year-round,19305,8.6,7.5,29.3831,79.4498,https://images.unsplash.com/photo-1506905925346-21bda4d32df4?w=800
3c6f9004-9a2e-4afb-aa0f-aa9449e82aeb,Mussoorie (3),Mussoorie,Uttarakhand,India,hill_station,Scenic mountain retreat with breathtaking valley views.,Year-round,6838,5.7,7.6,30.4603,78.0737,https://images.unsplash.com/photo-1506905925346-21bda4d32df4?w=800
9e01fd54-b124-4a95-82cc-a5af658b48e0,Jim Corbett (3),Jim Corbett,Uttarakhand,India,national_park,Protected wildlife sanctuary with diverse fauna.,Nov-Feb,7695,6.8,7.5,29.4916,78.7452,https://images.unsplash.com/photo-1516026672322-bc52d61a55d5?w=800
c38bd8e1-bf3f-451a-b7fe-f3f4e973fb1d,Auli (3),Auli,Uttarakhand,India,ski_resort,Premier ski destination with world-class slopes.,Year-round,28017,5.9,7.4,30.5552,79.5603,https://images.unsplash.com/photo-1467809941588-68d5c9e3c9fd?w=800
3773817d-4dbc-4ad4-998b-f77231230b3e,Kedarnath (3),Kedarnath,Uttarakhand,India,religious,Sacred pilgrimage site with spiritual significance.,Year-round,9806,7.3,5.3,30.7314,79.0976,https://images.unsplash.com/photo-1545126218-ab2e43f54571?w=800
6b627610-df14-4012-a63d-f45f8ddf5352,Badrinath (3),Badrinath,Uttarakhand,India,religious,Sacred pilgrimage site with spiritual significance.,Oct-Mar,9487,6.5,5.0,30.7151,79.4511,https://images.unsplash.com/photo-1545126218-ab2e43f54571?w=800
e43f528f-b25c-4c46-8878-cb6d4bb0cbae,Khajuraho (3),Khajuraho,Madhya Pradesh,India,heritage,Historic destination with ancient monuments and architectural marvels.,Jul-Sep,11644,8.3,7.6,24.7878,79.9593,https://images.unsplash.com/photo-1524492412937-b28074a5d7da?w=800
a8da290e-f11e-4a86-a39d-954f92ff3c24,Bhopal (3),Bhopal,Madhya Pradesh,India,city,"Vibrant urban destination with culture, cuisine, and nightlife.",Jul-Sep,11039,6.6,5.9,23.2234,77.4268,https://images.unsplash.com/photo-1477959858617-67f85cf4f1df?w=800
bb24a93b-d217-43b6-913b-5d512180d8db,Bandhavgarh (3),Bandhavgarh,Madhya Pradesh,India,national_park,Protected wildlife sanctuary with diverse fauna.,Jul-Sep,11135,9.5,6.8,23.7593,81.0754,https://images.unsplash.com/photo-1516026672322-bc52d61a55d5?w=800
af00c4ea-a23e-462d-9974-24d69472037c,Orchha (3),Orchha,Madhya Pradesh,India,heritage,Historic destination with ancient monuments and architectural marvels.,Jul-Sep,7314,8.2,8.2,25.3558,78.6566,https://images.unsplash.com/photo-1524492412937-b28074a5d7da?w=800
3f335f40-7371-4785-99d5-8829d498df3d,Panchmarhi (3),Panchmarhi,Madhya Pradesh,India,hill_station,Scenic mountain retreat with breathtaking valley views.,Apr-Jun,6943,6.2,7.6,22.4705,78.458,https://images.unsplash.com/photo-1506905925346-21bda4d32df4?w=800
a73f6fdc-6571-4756-a70b-becba21ddb84,Kolkata (3),Kolkata,West Bengal,India,city,"Vibrant urban destination with culture, cuisine, and nightlife.",Nov-Feb,37355,5.5,5.1,22.5524,88.3812,https://images.unsplash.com/photo-1477959858617-67f85cf4f1df?w=800
c1509f3e-4121-4edd-a2cb-1efb30c870f8,Darjeeling (3),Darjeeling,West Bengal,India,hill_station,Scenic mountain retreat with breathtaking valley views.,Year-round,11948,7.6,9.0,27.0108,88.2473,https://images.unsplash.com/photo-1506905925346-21bda4d32df4?w=800
40a2f6b9-8c19-4ed3-b396-811947c0f506,Sundarbans (3),Sundarbans,West Bengal,India,national_park,Protected wildlife sanctuary with diverse fauna.,Apr-Jun,8088,9.2,8.5,21.911,88.9294,https://images.unsplash.com/photo-1516026672322-bc52d61a55d5?w=800
e9271bd0-0d70-46c2-96f6-dac690de8d7e,Puri (3),Puri,Odisha,India,religious,Sacred pilgrimage site with spiritual significance.,Jul-Sep,13074,8.6,9.2,19.7651,85.8018,https://images.unsplash.com/photo-1545126218-ab2e43f54571?w=800
efc48ac1-307a-471e-b487-5b91fb699387,Bhubaneswar (3),Bhubaneswar,Odisha,India,heritage,Historic destination with ancient monuments and architectural marvels.,Oct-Mar,15731,5.6,7.9,20.3164,85.7794,https://images.unsplash.com/photo-1524492412937-b28074a5d7da?w=800
44883eb8-12d3-4578-b1da-1f713da20159,Konark (3),Konark,Odisha,India,heritage,Historic destination with ancient monuments and architectural marvels.,Oct-Mar,12590,7.3,7.6,19.913,86.1221,https://images.unsplash.com/photo-1524492412937-b28074a5d7da?w=800
707637bb-18a2-4729-b515-ae4cc6cc9483,Hyderabad (3),Hyderabad,Telangana,India,city,"Vibrant urban destination with culture, cuisine, and nightlife.",Nov-Feb,26511,9.5,6.1,17.4266,78.4943,https://images.unsplash.com/photo-1477959858617-67f85cf4f1df?w=800
2dcea6fa-7332-4de8-b189-1afe5c09702d,Tirupati (3),Tirupati,Andhra Pradesh,India,religious,Sacred pilgrimage site with spiritual significance.,Year-round,12796,8.6,8.9,13.6025,79.4568,https://images.unsplash.com/photo-1545126218-ab2e43f54571?w=800
9fe4d057-6fa0-42dd-99fe-5147cc007de8,Visakhapatnam (3),Visakhapatnam,Andhra Pradesh,India,beach,Stunning coastal destination with golden sands and azure waters.,Year-round,15243,7.2,6.3,17.6925,83.2277,https://images.unsplash.com/photo-1507525428034-b723cf961d3e?w=800
4f1978a7-e3b8-44c7-8138-ee843aff840c,Guwahati (3),Guwahati,Assam,India,city,"Vibrant urban destination with culture, cuisine, and nightlife.",Nov-Feb,30512,8.2,7.7,26.0992,91.7206,https://images.unsplash.com/photo-1477959858617-67f85cf4f1df?w=800
7cfa4c17-35d0-4719-89b2-b8fadd971351,Kaziranga (3),Kaziranga,Assam,India,national_park,Protected wildlife sanctuary with diverse fauna.,Jul-Sep,17874,7.6,8.3,26.5683,93.1511,https://images.unsplash.com/photo-1516026672322-bc52d61a55d5?w=800
e5354ce6-b0e5-44af-90ee-49a32babe273,Shillong (3),Shillong,Meghalaya,India,hill_station,Scenic mountain retreat with breathtaking valley views.,Nov-Feb,17360,7.7,6.2,25.5513,91.9291,https://images.unsplash.com/photo-1506905925346-21bda4d32df4?w=800
9676ccea-1cde-40b0-b09f-540c8501d2ad,Cherrapunji (3),Cherrapunji,Meghalaya,India,nature,Pristine natural destination with lush landscapes and wildlife.,Nov-Feb,12586,9.2,7.7,25.3315,91.7395,https://images.unsplash.com/photo-1441974231531-c6227db76b6e?w=800
f8dfd6a3-7980-4b28-b2a2-4dd0e2ab7b6a,Gangtok (3),Gangtok,Sikkim,India,hill_station,Scenic mountain retreat with breathtaking valley views.,Nov-Feb,11363,6.5,6.0,27.3461,88.656,https://images.unsplash.com/photo-1506905925346-21bda4d32df4?w=800
1befa4dc-750d-4065-8264-026f5b7a7785,Leh (3),Leh,Ladakh,India,adventure,"Thrilling destination for trekking, skiing, and adventure sports.",Apr-Jun,11029,7.6,9.0,34.1078,77.5648,https://images.unsplash.com/photo-1551632811-561732d1e306?w=800
681a080e-93a1-4e27-89fe-99720837b918,Srinagar (3),Srinagar,Jammu and Kashmir,India,nature,Pristine natural destination with lush landscapes and wildlife.,Year-round,14878,5.7,5.3,34.1142,74.8061,https://images.unsplash.com/photo-1441974231531-c6227db76b6e?w=800
923d3d29-ba31-469a-ae63-552310b9a570,Amritsar (3),Amritsar,Punjab,India,religious,Sacred pilgrimage site with spiritual significance.,Year-round,6555,7.4,9.2,31.6173,74.918,https://images.unsplash.com/photo-1545126218-ab2e43f54571?w=800
929624b6-d581-4c84-af4c-7135ae145362,Chandigarh (3),Chandigarh,Punjab,India,city,"Vibrant urban destination with culture, cuisine, and nightlife.",Oct-Mar,16940,9.2,9.6,30.695,76.8294,https://images.unsplash.com/photo-1477959858617-67f85cf4f1df?w=800
a7889d96-472b-489d-ae6f-4c033aa3b043,Port Blair (3),Port Blair,Andaman,India,island,Tropical island paradise with turquoise waters.,Jul-Sep,30898,8.3,8.4,11.6131,92.7004,https://images.unsplash.com/photo-1506197603052-3cc9c3a201bd?w=800
0f5efd32-ce57-43ec-abe7-21408ea0c93d,Havelock Island (3),Havelock Island,Andaman,India,island,Tropical island paradise with turquoise waters.,Apr-Jun,33550,7.0,7.6,12.0077,92.9631,https://images.unsplash.com/photo-1506197603052-3cc9c3a201bd?w=800
47274105-0290-407a-a1fc-a4767a8b1d94,Vaishno Devi (3),Vaishno Devi,Jammu and Kashmir,India,religious,Sacred pilgrimage site with spiritual significance.,Year-round,11147,7.4,8.9,33.0518,74.9783,https://images.unsplash.com/photo-1545126218-ab2e43f54571?w=800
e7a9156a-caf2-462b-85f5-5932bcf64554,Bodh Gaya (3),Bodh Gaya,Bihar,India,religious,Sacred pilgrimage site with spiritual significance.,Apr-Jun,6328,7.0,7.0,24.7024,84.9634,https://images.unsplash.com/photo-1545126218-ab2e43f54571?w=800
e6f6e5a1-c964-464e-9edb-e89b0ef65611,Nalanda (3),Nalanda,Bihar,India,heritage,Historic destination with ancient monuments and architectural marvels.,Nov-Feb,6265,6.5,9.5,25.1445,85.436,https://images.unsplash.com/photo-1524492412937-b28074a5d7da?w=800
a13efbc5-dafb-49dd-a6bd-7098c561cb3d,Dehradun (3),Dehradun,Uttarakhand,India,city,"Vibrant urban destination with culture, cuisine, and nightlife.",Nov-Feb,16428,6.8,6.8,30.3498,78.0321,https://images.unsplash.com/photo-1477959858617-67f85cf4f1df?w=800
72262967-ec59-4793-ba3c-40f8b25a93e5,Bali (3),Bali,Bali,Indonesia,beach,Stunning coastal destination with golden sands and azure waters.,Apr-Jun,16432,8.6,7.3,-8.3181,115.116,https://images.unsplash.com/photo-1507525428034-b723cf961d3e?w=800
b5e3c68f-ecfa-40f5-a114-6151cfa49e88,Bangkok (3),Bangkok,Bangkok,Thailand,city,"Vibrant urban destination with culture, cuisine, and nightlife.",Jul-Sep,15512,8.4,6.7,13.7203,100.5065,https://images.unsplash.com/photo-1477959858617-67f85cf4f1df?w=800
58750005-0e62-4a5e-9d9f-98b7e1538996,Phuket (3),Phuket,Phuket,Thailand,beach,Stunning coastal destination with golden sands and azure waters.,Nov-Feb,9924,7.6,9.0,7.8378,98.4241,https://images.unsplash.com/photo-1507525428034-b723cf961d3e?w=800
ebf44375-3b99-49ca-96fa-b92d5cec1c71,Chiang Mai (3),Chiang Mai,Chiang Mai,Thailand,city,"Vibrant urban destination with culture, cuisine, and nightlife.",Oct-Mar,35045,5.5,5.7,18.8014,98.9421,https://images.unsplash.com/photo-1477959858617-67f85cf4f1df?w=800
e1ccf128-d3c3-426f-9791-12b0efaa8f3d,Singapore (3),Singapore,Singapore,Singapore,city,"Vibrant urban destination with culture, cuisine, and nightlife.",Nov-Feb,10299,6.4,7.2,1.3081,103.8336,https://images.unsplash.com/photo-1477959858617-67f85cf4f1df?w=800
33786c23-a351-45e9-bf48-c89fb899b0db,Kuala Lumpur (3),Kuala Lumpur,KL,Malaysia,city,"Vibrant urban destination with culture, cuisine, and nightlife.",Year-round,39909,7.4,7.3,3.0897,101.6921,https://images.unsplash.com/photo-1477959858617-67f85cf4f1df?w=800
de3ec054-0b4a-413e-aee7-c3d1cd25c837,Ho Chi Minh City (3),Ho Chi Minh City,Vietnam,Vietnam,city,"Vibrant urban destination with culture, cuisine, and nightlife.",Oct-Mar,10548,7.6,6.3,10.8708,106.5814,https://images.unsplash.com/photo-1477959858617-67f85cf4f1df?w=800
1fa51d51-f7a6-4cca-adaf-b1e954fae541,Hanoi (3),Hanoi,Hanoi,Vietnam,heritage,Historic destination with ancient monuments and architectural marvels.,Jul-Sep,19208,9.3,5.9,21.0703,105.8566,https://images.unsplash.com/photo-1524492412937-b28074a5d7da?w=800
18e3b349-2589-4f11-a9d5-bd3d4aa980cd,Ha Long Bay (3),Ha Long Bay,Quang Ninh,Vietnam,nature,Pristine natural destination with lush landscapes and wildlife.,Nov-Feb,8144,8.0,6.2,20.8955,107.2134,https://images.unsplash.com/photo-1441974231531-c6227db76b6e?w=800
58f2607e-95e3-46b2-8344-44bbc6b6c078,Siem Reap (3),Siem Reap,Siem Reap,Cambodia,heritage,Historic destination with ancient monuments and architectural marvels.,Oct-Mar,12112,9.3,7.2,13.3414,103.8645,https://images.unsplash.com/photo-1524492412937-b28074a5d7da?w=800
9ea7b9f5-6785-43b8-8254-f6eea7a20af4,Manila (3),Manila,Philippines,Philippines,city,"Vibrant urban destination with culture, cuisine, and nightlife.",Apr-Jun,32414,8.8,5.4,14.6487,120.9992,https://images.unsplash.com/photo-1477959858617-67f85cf4f1df?w=800
f72e295c-824a-4237-9134-38850f15d571,Palawan (3),Palawan,Palawan,Philippines,island,Tropical island paradise with turquoise waters.,Oct-Mar,21127,7.1,6.8,9.8325,118.7521,https://images.unsplash.com/photo-1506197603052-3cc9c3a201bd?w=800
5696149e-3345-41e4-a2a7-bffd0e6e2da1,Tokyo (3),Tokyo,Tokyo,Japan,city,"Vibrant urban destination with culture, cuisine, and nightlife.",Nov-Feb,12709,7.5,7.1,35.7046,139.6569,https://images.unsplash.com/photo-1477959858617-67f85cf4f1df?w=800
df2a00db-9614-4e8a-8aa8-d3570b06f6ea,Kyoto (3),Kyoto,Kyoto,Japan,heritage,Historic destination with ancient monuments and architectural marvels.,Oct-Mar,20660,7.6,5.2,34.9827,135.8049,https://images.unsplash.com/photo-1524492412937-b28074a5d7da?w=800
