id,place_name,city,state,country,category,description,estimated_cost,crowd_level,best_time_to_visit,traveler_type,latitude,longitude,image_url
01993a40-fb14-4391-a81a-4920e9878ba1,Secret Garden of Andaman,Andaman,Andaman,India,nature,"A pristine natural spot rarely visited — pure air, lush greenery, and tranquility.",150,medium,Early Morning,solo,34.4377,70.9635,https://images.unsplash.com/photo-1441974231531-c6227db76b6e?w=800
5d1f1fe4-2c70-4e03-9ad5-67a856a145aa,Delphi Panorama Point,Delphi,Greece,Sri Lanka,viewpoint,A hidden hilltop viewpoint offering breathtaking panoramic vistas most tourists miss.,400,medium,Monsoon,"family,solo",-24.1966,20.8198,https://images.unsplash.com/photo-1506905925346-21bda4d32df4?w=800
f94c9a4c-e014-4694-b1d6-9c449bde1e8e,Canggu Secluded Shore,Canggu,Bali,Morocco,beach,"A secluded beach hidden from mainstream tourists — crystal waters, untouched sands, and peaceful surroundings.",400,medium,Oct–Mar,"solo,couple",40.4854,138.6899,https://images.unsplash.com/photo-1507525428034-b723cf961d3e?w=800
921b7118-bbc8-439f-bd66-331d97016913,Untouched Sands of Ninh Binh,Ninh Binh,Vietnam,Australia,beach,"A secluded beach hidden from mainstream tourists — crystal waters, untouched sands, and peaceful surroundings.",400,low,Sunset,family,61.7796,-14.2747,https://images.unsplash.com/photo-1507525428034-b723cf961d3e?w=800
0be9cb85-0fe4-42f9-acda-bb1a0692776d,Sigiriya Sacred Grove,Sigiriya,Sri Lanka,Portugal,nature,"A pristine natural spot rarely visited — pure air, lush greenery, and tranquility.",1000,low,Oct–Mar,friends,-38.1334,-86.0153,https://images.unsplash.com/photo-1441974231531-c6227db76b6e?w=800
493c4dda-84ea-4a79-8484-be184792a675,Spiti Sacred Grove,Spiti,Himachal Pradesh,India,nature,"A pristine natural spot rarely visited — pure air, lush greenery, and tranquility.",1500,medium,Monsoon,"friends,backpacker,couple",9.0775,89.9882,https://images.unsplash.com/photo-1441974231531-c6227db76b6e?w=800
2b1afee6-d493-4f03-aceb-dcb0618fafe2,Hidden Temple in Darjeeling,Darjeeling,West Bengal,India,historical,A forgotten historical site with rich stories and minimal crowds.,2000,low,Nov–Feb,solo,18.5604,91.0312,https://images.unsplash.com/photo-1524492412937-b28074a5d7da?w=800
c0d852c9-49e2-4d0b-9fb6-bbb5a1ef32b7,Forgotten Fort of Gokarna,Gokarna,Karnataka,India,historical,A forgotten historical site with rich stories and minimal crowds.,750,low,Apr–Jun,solo,25.6268,73.8971,https://images.unsplash.com/photo-1524492412937-b28074a5d7da?w=800
515535f0-3bc3-4186-b034-4e3d498d8ace,Offbeat Trek to Andaman,Andaman,Andaman,India,trek,An offbeat trekking trail offering panoramic views with very few other hikers.,300,low,Apr–Jun,"solo,friends",18.0139,75.2701,https://images.unsplash.com/photo-1551632811-561732d1e306?w=800
83397c60-bdb4-4970-9fef-7da6e893f755,Secret Summit Trail of Positano,Positano,Italy,Jordan,trek,An offbeat trekking trail offering panoramic views with very few other hikers.,750,low,Year-round,"couple,family,solo",42.9043,-112.9362,https://images.unsplash.com/photo-1551632811-561732d1e306?w=800
47dd5550-b5d5-40a5-a2de-1a32e83b43c0,Hidden Pass near Kodaikanal,Kodaikanal,Tamil Nadu,India,trek,An offbeat trekking trail offering panoramic views with very few other hikers.,0,medium,Sunrise,"friends,backpacker,couple",29.8751,89.4289,https://images.unsplash.com/photo-1551632811-561732d1e306?w=800
9fe64a6d-a0dd-4ffa-9f66-f0932720b258,The Lost Stepwell of Essaouira,Essaouira,Morocco,Italy,historical,A forgotten historical site with rich stories and minimal crowds.,300,medium,Apr–Jun,solo,58.3709,40.4377,https://images.unsplash.com/photo-1524492412937-b28074a5d7da?w=800
147ea0bf-2070-4740-b9b4-58d8933d0cc7,Matera Panorama Point,Matera,Italy,Spain,viewpoint,A hidden hilltop viewpoint offering breathtaking panoramic vistas most tourists miss.,200,medium,Apr–Jun,friends,-27.7484,144.3186,https://images.unsplash.com/photo-1506905925346-21bda4d32df4?w=800
3f2d9d42-d1db-46c2-90f5-be4601490159,The Wild Camp at Chikmagalur,Chikmagalur,Karnataka,India,adventure,A hidden adventure spot offering thrills without the tourist rush.,1000,low,Oct–Mar,"friends,solo",28.827,70.9083,https://images.unsplash.com/photo-1564769625905-50e93615e769?w=800
3e72f4b3-bd33-49a4-94f9-7dcdc91da93c,Ancient Ruins near Varanasi,Varanasi,Uttar Pradesh,India,historical,A forgotten historical site with rich stories and minimal crowds.,400,low,Oct–Mar,"solo,friends,couple",28.4064,84.8045,https://images.unsplash.com/photo-1524492412937-b28074a5d7da?w=800
04eb5353-0359-47e4-ab52-99b68ca487c0,Misty Falls of Sintra,Sintra,Portugal,Portugal,waterfall,"A stunning hidden waterfall tucked deep in the forest, accessible via a short trek.",1000,medium,Monsoon,"family,backpacker",2.5305,40.8166,https://images.unsplash.com/photo-1433086966358-54859d0ed716?w=800
0eff9d1c-f573-4e47-8fa4-4508fc7852e1,Hidden Viewpoint at Alleppey,Alleppey,Kerala,India,viewpoint,A hidden hilltop viewpoint offering breathtaking panoramic vistas most tourists miss.,300,medium,Early Morning,couple,30.8364,85.1157,https://images.unsplash.com/photo-1506905925346-21bda4d32df4?w=800
8df332d9-da7b-4e7a-a48a-ccd6cfb299dc,Untouched Sands of Chefchaouen,Chefchaouen,Morocco,France,beach,"A secluded beach hidden from mainstream tourists — crystal waters, untouched sands, and peaceful surroundings.",0,low,Apr–Jun,"solo,couple,friends",58.0863,-74.5826,https://images.unsplash.com/photo-1507525428034-b723cf961d3e?w=800
fe693fdb-2d91-4d62-a1a1-ef17acc9084a,Hidden Pass near Gokarna,Gokarna,Karnataka,India,trek,An offbeat trekking trail offering panoramic views with very few other hikers.,500,low,Monsoon,"couple,solo",34.0009,92.0057,https://images.unsplash.com/photo-1551632811-561732d1e306?w=800
6ea26662-32ea-4562-afc1-5e55f9291434,Civita di Bagnoregio Valley Trek,Civita di Bagnoregio,Italy,Vietnam,trek,An offbeat trekking trail offering panoramic views with very few other hikers.,50,medium,Year-round,"backpacker,friends,couple",8.9075,-54.5536,https://images.unsplash.com/photo-1551632811-561732d1e306?w=800
c25d8af5-2eea-4036-af48-cf6bacc485a7,Kasol Rooftop Cafe,Kasol,Himachal Pradesh,India,cafe,"A charming tucked-away cafe loved by locals — great coffee, food, and ambiance.",1500,low,Apr–Jun,"friends,couple,family",23.3677,86.4071,https://images.unsplash.com/photo-1501339847302-ac426a4a7cbb?w=800
9585cbfb-b7b0-45f6-8c8c-a9a0fe891258,Jungle Waterfall near Kasol,Kasol,Himachal Pradesh,India,waterfall,"A stunning hidden waterfall tucked deep in the forest, accessible via a short trek.",2000,medium,Jul–Sep,"family,solo",27.8374,90.6936,https://images.unsplash.com/photo-1433086966358-54859d0ed716?w=800
253a5159-8251-4539-a249-cdead1e62b39,Forgotten Fort of Kasol,Kasol,Himachal Pradesh,India,historical,A forgotten historical site with rich stories and minimal crowds.,400,low,Oct–Mar,"friends,backpacker,couple",9.2335,93.6966,https://images.unsplash.com/photo-1524492412937-b28074a5d7da?w=800
7f254106-6afe-4de2-9e16-8260442625e4,Alleppey Sacred Grove,Alleppey,Kerala,India,nature,"A pristine natural spot rarely visited — pure air, lush greenery, and tranquility.",50,medium,Year-round,"solo,couple",33.1374,79.6757,https://images.unsplash.com/photo-1441974231531-c6227db76b6e?w=800
9954aaf7-07d2-4650-89ed-c54c23ec66ff,The Lost Lake near Ghent,Ghent,Belgium,Italy,nature,"A pristine natural spot rarely visited — pure air, lush greenery, and tranquility.",2000,low,Sunset,"couple,solo,family",-43.9418,-33.7189,https://images.unsplash.com/photo-1441974231531-c6227db76b6e?w=800
94f863ad-7a90-4198-ad1a-5b9dfcd1cf8d,The Wild Camp at Badami,Badami,Karnataka,India,adventure,A hidden adventure spot offering thrills without the tourist rush.,500,low,Apr–Jun,couple,32.8303,81.4954,https://images.unsplash.com/photo-1564769625905-50e93615e769?w=800
af440daf-6dc4-4d7b-aee6-ba451f9aaffa,Gangtok Sunrise Point,Gangtok,Sikkim,India,viewpoint,A hidden hilltop viewpoint offering breathtaking panoramic vistas most tourists miss.,1000,low,Sunrise,"couple,solo",9.4962,85.2027,https://images.unsplash.com/photo-1506905925346-21bda4d32df4?w=800
5fcd7e25-8241-4d3d-b2c4-0324bce702e0,Visakhapatnam Secret Beach,Visakhapatnam,Andhra Pradesh,India,beach,"A secluded beach hidden from mainstream tourists — crystal waters, untouched sands, and peaceful surroundings.",100,low,Apr–Jun,backpacker,11.1262,76.8771,https://images.unsplash.com/photo-1507525428034-b723cf961d3e?w=800
c98520dc-031b-488b-8472-6a62e76d81e9,The Secret Waterfall near Plovdiv,Plovdiv,Bulgaria,Italy,waterfall,"A stunning hidden waterfall tucked deep in the forest, accessible via a short trek.",50,low,Oct–Mar,"solo,friends",-33.4158,147.3495,https://images.unsplash.com/photo-1433086966358-54859d0ed716?w=800
797bfc5a-f3de-460a-aa74-89099a31d82e,Offbeat Kayaking in Shimla,Shimla,Himachal Pradesh,India,adventure,A hidden adventure spot offering thrills without the tourist rush.,50,medium,Jul–Sep,"friends,solo",27.2441,84.6208,https://images.unsplash.com/photo-1564769625905-50e93615e769?w=800
cf5870ef-0dda-4051-ac55-11a607437f08,Enchanted Forest of Jaipur,Jaipur,Rajasthan,India,nature,"A pristine natural spot rarely visited — pure air, lush greenery, and tranquility.",200,medium,Jul–Sep,"family,couple,friends",13.362,82.9441,https://images.unsplash.com/photo-1441974231531-c6227db76b6e?w=800
2e8ef366-eec6-44b7-b0f4-4aecec245398,The Little Cafe in Chiang Rai,Chiang Rai,Thailand,Nepal,cafe,"A charming tucked-away cafe loved by locals — great coffee, food, and ambiance.",1000,low,Monsoon,"friends,family,solo",-18.6971,-103.8588,https://images.unsplash.com/photo-1501339847302-ac426a4a7cbb?w=800
1509ef35-0236-4f4c-9db1-b143dafa84b4,Secret Garden of Kotor,Kotor,Montenegro,Nepal,nature,"A pristine natural spot rarely visited — pure air, lush greenery, and tranquility.",1000,low,Year-round,couple,-25.4564,-70.4197,https://images.unsplash.com/photo-1441974231531-c6227db76b6e?w=800
aca056fb-4326-4d09-8505-4d6e07ca302c,The Wild Camp at Nashik,Nashik,Maharashtra,India,adventure,A hidden adventure spot offering thrills without the tourist rush.,200,medium,Post-Monsoon,"friends,couple,family",13.5439,89.0474,https://images.unsplash.com/photo-1564769625905-50e93615e769?w=800
1a334a1d-fcba-408b-b474-efca280ed32f,Jungle Waterfall near Tbilisi,Tbilisi,Georgia,Vietnam,waterfall,"A stunning hidden waterfall tucked deep in the forest, accessible via a short trek.",0,medium,Early Morning,backpacker,-41.5254,79.3063,https://images.unsplash.com/photo-1433086966358-54859d0ed716?w=800
0aacf668-1905-4cb2-8ea3-d4c4e70139e8,Goa Secluded Shore,Goa,Goa,India,beach,"A secluded beach hidden from mainstream tourists — crystal waters, untouched sands, and peaceful surroundings.",100,low,Apr–Jun,"solo,couple,family",30.5837,91.6237,https://images.unsplash.com/photo-1507525428034-b723cf961d3e?w=800
98229bde-0d2b-4b26-adb9-7178b27d513f,The Secret Waterfall near Delphi,Delphi,Greece,Portugal,waterfall,"A stunning hidden waterfall tucked deep in the forest, accessible via a short trek.",1000,low,Nov–Feb,"solo,family",28.356,-36.9793,https://images.unsplash.com/photo-1433086966358-54859d0ed716?w=800
521dd1dd-3537-4781-ae27-f6ee308beaa1,Secret Summit Trail of Wadi Rum,Wadi Rum,Jordan,Italy,trek,An offbeat trekking trail offering panoramic views with very few other hikers.,100,medium,Post-Monsoon,"solo,couple,friends",-12.1745,105.5191,https://images.unsplash.com/photo-1551632811-561732d1e306?w=800
82f7bb49-f2f8-4114-b41a-bc7b54ecf2cb,Misty Falls of Ninh Binh,Ninh Binh,Vietnam,Portugal,waterfall,"A stunning hidden waterfall tucked deep in the forest, accessible via a short trek.",750,medium,Jul–Sep,"solo,family",23.5209,47.7162,https://images.unsplash.com/photo-1433086966358-54859d0ed716?w=800
995754cc-522b-40fb-9e53-5a97c146ef0e,Matera Valley Trek,Matera,Italy,Spain,trek,An offbeat trekking trail offering panoramic views with very few other hikers.,750,low,Post-Monsoon,"backpacker,couple",-15.6808,42.5903,https://images.unsplash.com/photo-1551632811-561732d1e306?w=800
7d3d8e8e-35a4-45b8-8cfa-f0ce3c62bf50,The Lost Stepwell of Chikmagalur,Chikmagalur,Karnataka,India,historical,A forgotten historical site with rich stories and minimal crowds.,2000,low,Nov–Feb,family,26.3927,89.1254,https://images.unsplash.com/photo-1524492412937-b28074a5d7da?w=800
de1bef64-8f59-454c-863d-caeca8abccf1,Untouched Sands of Delphi,Delphi,Greece,Indonesia,beach,"A secluded beach hidden from mainstream tourists — crystal waters, untouched sands, and peaceful surroundings.",2000,medium,Post-Monsoon,"friends,family,solo",-11.4677,32.1693,https://images.unsplash.com/photo-1507525428034-b723cf961d3e?w=800
13badc7d-0dbe-483d-bb7d-dc75831f53f8,Hidden Pass near Delphi,Delphi,Greece,Morocco,trek,An offbeat trekking trail offering panoramic views with very few other hikers.,150,medium,Early Morning,couple,35.1847,18.5752,https://images.unsplash.com/photo-1551632811-561732d1e306?w=800
7558b52c-1911-4069-829f-12047c3b44cd,Nashik Sacred Grove,Nashik,Maharashtra,India,nature,"A pristine natural spot rarely visited — pure air, lush greenery, and tranquility.",750,low,Oct–Mar,solo,12.0363,74.9161,https://images.unsplash.com/photo-1441974231531-c6227db76b6e?w=800
a880174d-cbf3-4783-a62b-0df00882a09e,Varanasi Secret Beach,Varanasi,Uttar Pradesh,India,beach,"A secluded beach hidden from mainstream tourists — crystal waters, untouched sands, and peaceful surroundings.",150,medium,Year-round,"solo,couple,friends",34.4362,90.1084,https://images.unsplash.com/photo-1507525428034-b723cf961d3e?w=800
5e8c9b69-1136-4b0d-ba0b-0b699c8eb523,Offbeat Kayaking in Sigiriya,Sigiriya,Sri Lanka,Portugal,adventure,A hidden adventure spot offering thrills without the tourist rush.,400,medium,Post-Monsoon,"backpacker,friends,couple",52.0879,-32.1765,https://images.unsplash.com/photo-1564769625905-50e93615e769?w=800
a8a7d876-d357-4d14-8ed7-59f2869861a6,The Forgotten Lookout in Puri,Puri,Odisha,India,viewpoint,A hidden hilltop viewpoint offering breathtaking panoramic vistas most tourists miss.,100,medium,Monsoon,"couple,family,friends",28.5781,87.9159,https://images.unsplash.com/photo-1506905925346-21bda4d32df4?w=800
2eda6346-b027-43fc-9248-96ced95881f9,Hidden Valley of Puri,Puri,Odisha,India,nature,"A pristine natural spot rarely visited — pure air, lush greenery, and tranquility.",100,medium,Sunset,"couple,backpacker",10.4031,90.8313,https://images.unsplash.com/photo-1441974231531-c6227db76b6e?w=800
a37a9eb5-9e3a-4972-9fd4-21beaaf2c7f8,Cherrapunji Hidden Falls,Cherrapunji,Meghalaya,India,waterfall,"A stunning hidden waterfall tucked deep in the forest, accessible via a short trek.",1500,low,Post-Monsoon,"solo,couple,backpacker",21.4009,85.0587,https://images.unsplash.com/photo-1433086966358-54859d0ed716?w=800
b3213414-d991-4cbb-85b5-28320863d809,Wadi Rum Hidden Falls,Wadi Rum,Jordan,Morocco,waterfall,"A stunning hidden waterfall tucked deep in the forest, accessible via a short trek.",0,medium,Jul–Sep,"couple,solo,family",12.6795,-91.7774,https://images.unsplash.com/photo-1433086966358-54859d0ed716?w=800
8ff9f965-1a75-4e1b-8da9-dff99b4ea463,Hidden Rappelling at Manali,Manali,Himachal Pradesh,India,adventure,A hidden adventure spot offering thrills without the tourist rush.,750,low,Sunset,family,12.8643,96.8216,https://images.unsplash.com/photo-1564769625905-50e93615e769?w=800
4d8be411-8540-4efa-9795-accc2c8984dd,Hidden Pass near Queenstown,Queenstown,New Zealand,France,trek,An offbeat trekking trail offering panoramic views with very few other hikers.,750,low,Early Morning,"solo,family",35.2422,46.606,https://images.unsplash.com/photo-1551632811-561732d1e306?w=800
73a9cd74-5867-4de9-b92a-d6a39dc800bc,Swakopmund Rooftop Cafe,Swakopmund,Namibia,Italy,cafe,"A charming tucked-away cafe loved by locals — great coffee, food, and ambiance.",50,low,Early Morning,"couple,backpacker",-35.8193,26.2916,https://images.unsplash.com/photo-1501339847302-ac426a4a7cbb?w=800
891f0b86-e68f-4565-b3c2-02f03b8f3047,The Forgotten Lookout in Luang Prabang,Luang Prabang,Laos,Australia,viewpoint,A hidden hilltop viewpoint offering breathtaking panoramic vistas most tourists miss.,200,medium,Oct–Mar,family,-2.9054,123.3625,https://images.unsplash.com/photo-1506905925346-21bda4d32df4?w=800
53b2919d-a772-4e2a-bcf2-73994a902172,Enchanted Forest of Wadi Rum,Wadi Rum,Jordan,Italy,nature,"A pristine natural spot rarely visited — pure air, lush greenery, and tranquility.",1000,low,Monsoon,family,8.9824,77.3849,https://images.unsplash.com/photo-1441974231531-c6227db76b6e?w=800
f8a744eb-8f65-4e1e-83b3-9478876d537e,Ninh Binh Sacred Grove,Ninh Binh,Vietnam,Greece,nature,"A pristine natural spot rarely visited — pure air, lush greenery, and tranquility.",200,medium,Oct–Mar,"backpacker,couple,solo",-14.0585,90.4977,https://images.unsplash.com/photo-1441974231531-c6227db76b6e?w=800
6e17803e-c794-4e67-9e97-4a6e8b6eaf77,Misty Falls of Coorg,Coorg,Karnataka,India,waterfall,"A stunning hidden waterfall tucked deep in the forest, accessible via a short trek.",1500,low,Nov–Feb,"friends,backpacker",19.4902,92.9736,https://images.unsplash.com/photo-1433086966358-54859d0ed716?w=800
70ec7e44-52e3-455c-8d40-f50a03a14344,The Secret Waterfall near Jaipur,Jaipur,Rajasthan,India,waterfall,"A stunning hidden waterfall tucked deep in the forest, accessible via a short trek.",200,medium,Year-round,"backpacker,couple",16.5341,79.3607,https://images.unsplash.com/photo-1433086966358-54859d0ed716?w=800
8f46d981-6c4d-4f3a-a893-6ab37d4bc750,Hidden Valley of Kodaikanal,Kodaikanal,Tamil Nadu,India,nature,"A pristine natural spot rarely visited — pure air, lush greenery, and tranquility.",750,low,Post-Monsoon,"friends,couple,solo",31.2975,82.3086,https://images.unsplash.com/photo-1441974231531-c6227db76b6e?w=800
3262af50-8866-4444-af09-f1f9d4a7c2cb,Misty Falls of Chefchaouen,Chefchaouen,Morocco,Greece,waterfall,"A stunning hidden waterfall tucked deep in the forest, accessible via a short trek.",1000,medium,Nov–Feb,"solo,backpacker,family",28.2184,107.0169,https://images.unsplash.com/photo-1433086966358-54859d0ed716?w=800
c9b14f54-f51b-4b2a-9f99-daa1b1b31ea2,The Bohemian Cup in Tbilisi,Tbilisi,Georgia,Vietnam,cafe,"A charming tucked-away cafe loved by locals — great coffee, food, and ambiance.",200,medium,Nov–Feb,"solo,friends,family",-37.4858,84.9416,https://images.unsplash.com/photo-1501339847302-ac426a4a7cbb?w=800
4ac0be70-4bb0-4cb3-a683-8e4bfea2bef1,Hidden Viewpoint at Matera,Matera,Italy,New Zealand,viewpoint,A hidden hilltop viewpoint offering breathtaking panoramic vistas most tourists miss.,1500,low,Early Morning,friends,35.7276,132.8329,https://images.unsplash.com/photo-1506905925346-21bda4d32df4?w=800
2e1f5d14-9c31-48a1-8898-81d48072083f,The Forgotten Lookout in Coorg,Coorg,Karnataka,India,viewpoint,A hidden hilltop viewpoint offering breathtaking panoramic vistas most tourists miss.,300,medium,Post-Monsoon,couple,13.2506,87.5488,https://images.unsplash.com/photo-1506905925346-21bda4d32df4?w=800
da6cfe72-c963-4acd-8d41-3f934c7397a1,Secret Vista of Varanasi,Varanasi,Uttar Pradesh,India,viewpoint,A hidden hilltop viewpoint offering breathtaking panoramic vistas most tourists miss.,300,medium,Oct–Mar,"friends,family,backpacker",21.9703,83.3751,https://images.unsplash.com/photo-1506905925346-21bda4d32df4?w=800
b360f93a-2918-47d9-a381-23e4662a4a0c,Leh Cliff Jump,Leh,Ladakh,India,adventure,A hidden adventure spot offering thrills without the tourist rush.,100,low,Oct–Mar,"backpacker,solo",16.8836,79.8639,https://images.unsplash.com/photo-1564769625905-50e93615e769?w=800
2dddb877-6c2c-421c-b1ce-953f2f22634e,Hidden Pass near Lonavala,Lonavala,Maharashtra,India,trek,An offbeat trekking trail offering panoramic views with very few other hikers.,750,medium,Early Morning,"solo,family,friends",14.604,83.1065,https://images.unsplash.com/photo-1551632811-561732d1e306?w=800
f92ce296-e96a-4517-a6f8-55eceb902bf7,Swakopmund Sacred Grove,Swakopmund,Namibia,Italy,nature,"A pristine natural spot rarely visited — pure air, lush greenery, and tranquility.",100,medium,Post-Monsoon,friends,4.549,129.7279,https://images.unsplash.com/photo-1441974231531-c6227db76b6e?w=800
1bdac699-6fc1-4ac8-908c-2f2bfcf83ab5,Offbeat Trek to Canggu,Canggu,Bali,France,trek,An offbeat trekking trail offering panoramic views with very few other hikers.,0,medium,Sunrise,"couple,family,solo",27.6589,-87.5528,https://images.unsplash.com/photo-1551632811-561732d1e306?w=800
c21b08d9-9e8b-45d9-8f04-3f42f0b20c8b,Secret Summit Trail of Munnar,Munnar,Kerala,India,trek,An offbeat trekking trail offering panoramic views with very few other hikers.,1000,medium,Nov–Feb,friends,15.8467,68.2409,https://images.unsplash.com/photo-1551632811-561732d1e306?w=800
f8b9dc14-e77d-42be-97cf-9dcfd46ad0cd,Forgotten Fort of Sintra,Sintra,Portugal,Sri Lanka,historical,A forgotten historical site with rich stories and minimal crowds.,400,medium,Jul–Sep,"friends,solo",29.6261,-59.1204,https://images.unsplash.com/photo-1524492412937-b28074a5d7da?w=800
39a365ac-8ec9-4c1f-a8ea-fcfaa1eb0bc1,Hidden Temple in Jodhpur,Jodhpur,Rajasthan,India,historical,A forgotten historical site with rich stories and minimal crowds.,750,low,Post-Monsoon,backpacker,33.1083,90.3142,https://images.unsplash.com/photo-1524492412937-b28074a5d7da?w=800
671ee3e2-2d46-41b9-8149-f4b6b333a7dc,Hidden Brew of Visakhapatnam,Visakhapatnam,Andhra Pradesh,India,cafe,"A charming tucked-away cafe loved by locals — great coffee, food, and ambiance.",0,low,Nov–Feb,backpacker,31.3086,94.0814,https://images.unsplash.com/photo-1501339847302-ac426a4a7cbb?w=800
c08ec716-43be-44f5-ac9e-9ddc847f0f97,Secret Summit Trail of Chiang Rai,Chiang Rai,Thailand,Australia,trek,An offbeat trekking trail offering panoramic views with very few other hikers.,1500,medium,Jul–Sep,"solo,couple",10.7829,108.6177,https://images.unsplash.com/photo-1551632811-561732d1e306?w=800
3925b533-a6a7-4b78-9638-eb1879f75e2e,The Secret Waterfall near Sintra,Sintra,Portugal,Greece,waterfall,"A stunning hidden waterfall tucked deep in the forest, accessible via a short trek.",150,low,Monsoon,"family,friends",52.43,-109.5642,https://images.unsplash.com/photo-1433086966358-54859d0ed716?w=800
9e3caf26-7851-44bd-8e34-c9fde5cf8666,Kotor Cliff Jump,Kotor,Montenegro,Greece,adventure,A hidden adventure spot offering thrills without the tourist rush.,1500,low,Jul–Sep,"solo,friends,couple",-9.903,159.9026,https://images.unsplash.com/photo-1564769625905-50e93615e769?w=800
5fd9addf-3c97-416a-aede-d99240a4831e,Secret Summit Trail of Andaman,Andaman,Andaman,India,trek,An offbeat trekking trail offering panoramic views with very few other hikers.,500,low,Sunset,"family,backpacker",9.8649,89.9331,https://images.unsplash.com/photo-1551632811-561732d1e306?w=800
77da7c98-7635-4036-8620-869f370b9d03,The Forgotten Lookout in Swakopmund,Swakopmund,Namibia,Australia,viewpoint,A hidden hilltop viewpoint offering breathtaking panoramic vistas most tourists miss.,150,medium,Sunrise,"solo,friends,family",19.6791,101.9549,https://images.unsplash.com/photo-1506905925346-21bda4d32df4?w=800
4173eb21-0a33-4a0e-849e-45b1f3705460,Secret Garden of Chefchaouen,Chefchaouen,Morocco,Morocco,nature,"A pristine natural spot rarely visited — pure air, lush greenery, and tranquility.",1000,medium,Year-round,friends,31.1807,49.8038,https://images.unsplash.com/photo-1441974231531-c6227db76b6e?w=800
b01d942c-c332-42b8-9f13-2d9cabfb94cd,Hidden Viewpoint at Andaman,Andaman,Andaman,India,viewpoint,A hidden hilltop viewpoint offering breathtaking panoramic vistas most tourists miss.,750,low,Monsoon,"couple,solo",20.6183,89.7505,https://images.unsplash.com/photo-1506905925346-21bda4d32df4?w=800
49bb747b-ec23-4351-ab22-a65c96c6b68d,Hidden Cove of Ooty,Ooty,Tamil Nadu,India,beach,"A secluded beach hidden from mainstream tourists — crystal waters, untouched sands, and peaceful surroundings.",750,medium,Monsoon,"solo,family",18.6048,74.1436,https://images.unsplash.com/photo-1507525428034-b723cf961d3e?w=800
45bba8aa-efeb-400e-8e4a-3e1f43d8c185,Secret Garden Cafe near Sigiriya,Sigiriya,Sri Lanka,Jordan,cafe,"A charming tucked-away cafe loved by locals — great coffee, food, and ambiance.",300,medium,Apr–Jun,"couple,friends,solo",12.1807,73.4167,https://images.unsplash.com/photo-1501339847302-ac426a4a7cbb?w=800
ea0d7fcf-762c-4939-a8c3-df0b7c7dd880,Wayanad Sunrise Point,Wayanad,Kerala,India,viewpoint,A hidden hilltop viewpoint offering breathtaking panoramic vistas most tourists miss.,0,low,Monsoon,family,13.3896,89.948,https://images.unsplash.com/photo-1506905925346-21bda4d32df4?w=800
55fc88a1-0298-4022-bf6e-a9af671d8f53,The Bohemian Cup in Tbilisi,Tbilisi,Georgia,Sri Lanka,cafe,"A charming tucked-away cafe loved by locals — great coffee, food, and ambiance.",500,medium,Oct–Mar,"solo,backpacker",65.0483,12.8217,https://images.unsplash.com/photo-1501339847302-ac426a4a7cbb?w=800
09e7fa1b-8e2e-4006-a8da-7808dffb1b3f,Hidden Viewpoint at Matera,Matera,Italy,Morocco,viewpoint,A hidden hilltop viewpoint offering breathtaking panoramic vistas most tourists miss.,300,low,Year-round,"solo,backpacker",-41.1828,0.6216,https://images.unsplash.com/photo-1506905925346-21bda4d32df4?w=800
0527962f-81b5-4b31-a95e-124a47df4bd3,Hidden Rappelling at Shillong,Shillong,Meghalaya,India,adventure,A hidden adventure spot offering thrills without the tourist rush.,1000,low,Sunset,"solo,couple,family",11.4903,93.5369,https://images.unsplash.com/photo-1564769625905-50e93615e769?w=800
e3f3e20e-d9ac-438f-a6b2-0e2b2fe356ff,Matera Ridge Trail,Matera,Italy,Australia,trek,An offbeat trekking trail offering panoramic views with very few other hikers.,200,medium,Oct–Mar,"friends,backpacker",49.5077,128.7959,https://images.unsplash.com/photo-1551632811-561732d1e306?w=800
ba249108-e4f6-4738-bc4e-e318c817448d,Untouched Sands of Kampot,Kampot,Cambodia,France,beach,"A secluded beach hidden from mainstream tourists — crystal waters, untouched sands, and peaceful surroundings.",300,medium,Early Morning,couple,54.2399,32.0572,https://images.unsplash.com/photo-1507525428034-b723cf961d3e?w=800
6006e27b-be1e-4e0c-849b-47fd80a19f09,The Secret Waterfall near Pune,Pune,Maharashtra,India,waterfall,"A stunning hidden waterfall tucked deep in the forest, accessible via a short trek.",750,medium,Sunset,solo,22.3722,77.9621,https://images.unsplash.com/photo-1433086966358-54859d0ed716?w=800
1e4ec2e2-1d24-4d8e-b7a6-70a3bcc05fc6,Hidden Viewpoint at Wadi Rum,Wadi Rum,Jordan,Greece,viewpoint,A hidden hilltop viewpoint offering breathtaking panoramic vistas most tourists miss.,200,low,Nov–Feb,"backpacker,couple,solo",19.6179,-97.0107,https://images.unsplash.com/photo-1506905925346-21bda4d32df4?w=800
253e77cb-a83c-46e8-b000-258f7bf843ca,The Little Cafe in Varanasi,Varanasi,Uttar Pradesh,India,cafe,"A charming tucked-away cafe loved by locals — great coffee, food, and ambiance.",0,medium,Nov–Feb,couple,14.1557,71.7002,https://images.unsplash.com/photo-1501339847302-ac426a4a7cbb?w=800
45c61be1-8002-49b3-84a4-1a47e8d24a21,Enchanted Forest of Nashik,Nashik,Maharashtra,India,nature,"A pristine natural spot rarely visited — pure air, lush greenery, and tranquility.",750,low,Sunrise,"solo,friends",11.811,70.0754,https://images.unsplash.com/photo-1441974231531-c6227db76b6e?w=800
73e217b5-fe68-4f37-8701-186c8ec70dca,Lonavala Sacred Grove,Lonavala,Maharashtra,India,nature,"A pristine natural spot rarely visited — pure air, lush greenery, and tranquility.",300,low,Monsoon,"solo,backpacker,family",30.1528,88.1429,https://images.unsplash.com/photo-1441974231531-c6227db76b6e?w=800
0531086e-f07d-4989-af73-5539b75ef7b2,Secret Summit Trail of Pokhara,Pokhara,Nepal,Morocco,trek,An offbeat trekking trail offering panoramic views with very few other hikers.,200,low,Oct–Mar,solo,28.034,-46.4346,https://images.unsplash.com/photo-1551632811-561732d1e306?w=800
af789a4d-dfaa-41a5-9ada-f6f3f69a6ae3,Offbeat Trek to Pokhara,Pokhara,Nepal,Japan,trek,An offbeat trekking trail offering panoramic views with very few other hikers.,300,low,Early Morning,"friends,backpacker,solo",51.9288,34.7311,https://images.unsplash.com/photo-1551632811-561732d1e306?w=800
28fb4263-5aa2-4fbe-b6cc-5c629792563d,The Wild Camp at Goa,Goa,Goa,India,adventure,A hidden adventure spot offering thrills without the tourist rush.,750,medium,Nov–Feb,"family,couple",17.4987,71.5584,https://images.unsplash.com/photo-1564769625905-50e93615e769?w=800
6b4ad967-49a6-4fef-b8e4-50546e68821a,The Little Cafe in Essaouira,Essaouira,Morocco,Vietnam,cafe,"A charming tucked-away cafe loved by locals — great coffee, food, and ambiance.",200,medium,Year-round,"family,friends",16.2471,18.9802,https://images.unsplash.com/photo-1501339847302-ac426a4a7cbb?w=800
f9430c63-ecd3-4026-ba8a-ad690dbdef7c,Secret Garden of Plovdiv,Plovdiv,Bulgaria,Portugal,nature,"A pristine natural spot rarely visited — pure air, lush greenery, and tranquility.",750,low,Oct–Mar,"backpacker,family,friends",-13.5097,91.9057,https://images.unsplash.com/photo-1441974231531-c6227db76b6e?w=800
a16faba8-5636-4c9b-95d1-fc2c64bc8e1b,Hidden Temple in Coorg,Coorg,Karnataka,India,historical,A forgotten historical site with rich stories and minimal crowds.,750,low,Oct–Mar,"solo,friends",25.1734,92.1238,https://images.unsplash.com/photo-1524492412937-b28074a5d7da?w=800
51373502-4228-4499-8f6e-5a73ab0d4be0,The Bohemian Cup in Wadi Rum,Wadi Rum,Jordan,Indonesia,cafe,"A charming tucked-away cafe loved by locals — great coffee, food, and ambiance.",100,low,Sunset,"solo,couple",55.7117,-104.6985,https://images.unsplash.com/photo-1501339847302-ac426a4a7cbb?w=800
a4656580-4c72-4ff8-9177-447c712a9b18,Canggu Cliff Jump,Canggu,Bali,Greece,adventure,A hidden adventure spot offering thrills without the tourist rush.,0,medium,Early Morning,family,13.8847,63.9624,https://images.unsplash.com/photo-1564769625905-50e93615e769?w=800
5e625273-c887-456c-8646-ca0a1103e475,The Bohemian Cup in Chikmagalur,Chikmagalur,Karnataka,India,cafe,"A charming tucked-away cafe loved by locals — great coffee, food, and ambiance.",2000,medium,Sunset,"couple,solo,friends",22.4079,83.4619,https://images.unsplash.com/photo-1501339847302-ac426a4a7cbb?w=800
84564c11-71c0-4ba6-8195-7c0c5a0ba703,Delphi Cascade,Delphi,Greece,Portugal,waterfall,"A stunning hidden waterfall tucked deep in the forest, accessible via a short trek.",400,low,Jul–Sep,"couple,solo",-3.8996,-8.4699,https://images.unsplash.com/photo-1433086966358-54859d0ed716?w=800
56dc844c-e577-4148-949b-3a20b20f7430,Jungle Waterfall near Lonavala,Lonavala,Maharashtra,India,waterfall,"A stunning hidden waterfall tucked deep in the forest, accessible via a short trek.",300,medium,Year-round,family,32.5,88.5095,https://images.unsplash.com/photo-1433086966358-54859d0ed716?w=800
e9340168-f229-4264-b44d-6a650dd5cc24,Hidden Valley of Rishikesh,Rishikesh,Uttarakhand,India,nature,"A pristine natural spot rarely visited — pure air, lush greenery, and tranquility.",0,medium,Early Morning,"couple,friends,solo",31.9948,93.7742,https://images.unsplash.com/photo-1441974231531-c6227db76b6e?w=800
c0b831e0-590f-4e0e-b3c4-dc2e8becf863,Hidden Valley of Jodhpur,Jodhpur,Rajasthan,India,nature,"A pristine natural spot rarely visited — pure air, lush greenery, and tranquility.",150,low,Year-round,"family,backpacker",16.816,88.8569,https://images.unsplash.com/photo-1441974231531-c6227db76b6e?w=800
69398075-510e-4623-90fe-06325cace232,The Wild Camp at Rishikesh,Rishikesh,Uttarakhand,India,adventure,A hidden adventure spot offering thrills without the tourist rush.,1000,medium,Sunrise,"solo,friends,backpacker",17.3219,69.251,https://images.unsplash.com/photo-1564769625905-50e93615e769?w=800
1a81c2f0-bd77-4e38-a3a9-83d2cd678880,Hallstatt Rooftop Cafe,Hallstatt,Austria,Greece,cafe,"A charming tucked-away cafe loved by locals — great coffee, food, and ambiance.",150,medium,Apr–Jun,"backpacker,friends",26.3102,96.8027,https://images.unsplash.com/photo-1501339847302-ac426a4a7cbb?w=800
2e4c7078-67fd-4135-8cf8-786687d0de80,Ooty Secret Beach,Ooty,Tamil Nadu,India,beach,"A secluded beach hidden from mainstream tourists — crystal waters, untouched sands, and peaceful surroundings.",1500,low,Nov–Feb,"family,friends",14.7272,87.1719,https://images.unsplash.com/photo-1507525428034-b723cf961d3e?w=800
0d759d1a-3204-4b9d-ba19-8533a83d9c3f,Misty Falls of Ronda,Ronda,Spain,Indonesia,waterfall,"A stunning hidden waterfall tucked deep in the forest, accessible via a short trek.",500,low,Oct–Mar,friends,-37.931,35.381,https://images.unsplash.com/photo-1433086966358-54859d0ed716?w=800
5cdf733b-84bf-4122-bc6d-0a2d1501b2ae,The Bohemian Cup in Nainital,Nainital,Uttarakhand,India,cafe,"A charming tucked-away cafe loved by locals — great coffee, food, and ambiance.",300,low,Oct–Mar,"friends,backpacker",25.5385,79.1287,https://images.unsplash.com/photo-1501339847302-ac426a4a7cbb?w=800
55a0b387-db51-4c78-a110-e3d3e382a789,Hidden Rappelling at Visakhapatnam,Visakhapatnam,Andhra Pradesh,India,adventure,A hidden adventure spot offering thrills without the tourist rush.,0,low,Monsoon,friends,28.3084,78.3886,https://images.unsplash.com/photo-1564769625905-50e93615e769?w=800
da92ef95-46db-4b7e-805c-5337636bebf0,Untouched Sands of Munnar,Munnar,Kerala,India,beach,"A secluded beach hidden from mainstream tourists — crystal waters, untouched sands, and peaceful surroundings.",150,low,Early Morning,"couple,backpacker,family",14.3538,74.2592,https://images.unsplash.com/photo-1507525428034-b723cf961d3e?w=800
343f68b4-4ae3-4fd3-a0e6-5c45624fff96,The Lost Stepwell of Munnar,Munnar,Kerala,India,historical,A forgotten historical site with rich stories and minimal crowds.,300,low,Nov–Feb,"couple,family,backpacker",32.4896,92.3928,https://images.unsplash.com/photo-1524492412937-b28074a5d7da?w=800
ffe8762d-1ac7-4406-a73b-4cce0e10f25a,Secret Summit Trail of Shimla,Shimla,Himachal Pradesh,India,trek,An offbeat trekking trail offering panoramic views with very few other hikers.,50,low,Post-Monsoon,friends,15.2021,93.5087,https://images.unsplash.com/photo-1551632811-561732d1e306?w=800
496e4dff-f8d7-42f4-bf21-cff1055105c1,The Little Cafe in Kasol,Kasol,Himachal Pradesh,India,cafe,"A charming tucked-away cafe loved by locals — great coffee, food, and ambiance.",1000,low,Post-Monsoon,"family,backpacker,friends",13.5388,81.004,https://images.unsplash.com/photo-1501339847302-ac426a4a7cbb?w=800
e6ecfe3f-bd01-45a7-b044-f8fd69014a56,Civita di Bagnoregio Virgin Beach,Civita di Bagnoregio,Italy,Greece,beach,"A secluded beach hidden from mainstream tourists — crystal waters, untouched sands, and peaceful surroundings.",500,medium,Year-round,"friends,solo,backpacker",17.0443,-62.7563,https://images.unsplash.com/photo-1507525428034-b723cf961d3e?w=800
3cc42c8c-c558-46da-9780-1eb7f5eaea24,Nainital Virgin Beach,Nainital,Uttarakhand,India,beach,"A secluded beach hidden from mainstream tourists — crystal waters, untouched sands, and peaceful surroundings.",1000,medium,Oct–Mar,couple,24.4251,95.8804,https://images.unsplash.com/photo-1507525428034-b723cf961d3e?w=800
08a086e7-0379-452a-8f27-5eeebd1a538e,Sintra Sacred Grove,Sintra,Portugal,Morocco,nature,"A pristine natural spot rarely visited — pure air, lush greenery, and tranquility.",1000,low,Apr–Jun,"backpacker,couple",45.3854,34.0189,https://images.unsplash.com/photo-1441974231531-c6227db76b6e?w=800
78d6b1fd-bd2e-40d4-9cd0-6854c3d2b4d2,Chiang Rai Rooftop Cafe,Chiang Rai,Thailand,Jordan,cafe,"A charming tucked-away cafe loved by locals — great coffee, food, and ambiance.",0,medium,Post-Monsoon,"friends,family,solo",0.3326,-62.1581,https://images.unsplash.com/photo-1501339847302-ac426a4a7cbb?w=800
cea1a5e7-195b-491b-b3af-1a9dd3eec9a1,The Lost Lake near Badami,Badami,Karnataka,India,nature,"A pristine natural spot rarely visited — pure air, lush greenery, and tranquility.",50,medium,Early Morning,couple,19.1845,82.3801,https://images.unsplash.com/photo-1441974231531-c6227db76b6e?w=800
d2e10318-ac00-48c3-bcab-1ef0c0be6f25,Hidden Rappelling at Shimla,Shimla,Himachal Pradesh,India,adventure,A hidden adventure spot offering thrills without the tourist rush.,750,low,Oct–Mar,friends,19.6342,84.8797,https://images.unsplash.com/photo-1564769625905-50e93615e769?w=800
a445cb21-28dd-4039-970e-eb4e1387c136,Manali Valley Trek,Manali,Himachal Pradesh,India,trek,An offbeat trekking trail offering panoramic views with very few other hikers.,1500,medium,Year-round,"family,solo",8.4358,79.5226,https://images.unsplash.com/photo-1551632811-561732d1e306?w=800
c1b31d89-ddc7-4578-9e71-2c6b67e6f3b2,Ancient Ruins near Jaisalmer,Jaisalmer,Rajasthan,India,historical,A forgotten historical site with rich stories and minimal crowds.,0,low,Jul–Sep,"backpacker,couple",8.7796,72.6446,https://images.unsplash.com/photo-1524492412937-b28074a5d7da?w=800
ae0673c0-5275-4fa7-afcf-3064076c2d16,Goa Sacred Grove,Goa,Goa,India,nature,"A pristine natural spot rarely visited — pure air, lush greenery, and tranquility.",1000,medium,Early Morning,"backpacker,couple,solo",34.6949,71.3453,https://images.unsplash.com/photo-1441974231531-c6227db76b6e?w=800
f21c350d-5b8c-4811-8859-a5f8033c0ba0,Ancient Ruins near Kampot,Kampot,Cambodia,Morocco,historical,A forgotten historical site with rich stories and minimal crowds.,750,low,Monsoon,"couple,friends,backpacker",-20.717,-81.1062,https://images.unsplash.com/photo-1524492412937-b28074a5d7da?w=800
c9c5f031-9b1b-4791-990d-598289ee4548,Ancient Ruins near Ronda,Ronda,Spain,Vietnam,historical,A forgotten historical site with rich stories and minimal crowds.,200,medium,Year-round,"couple,backpacker,solo",-34.0926,54.8189,https://images.unsplash.com/photo-1524492412937-b28074a5d7da?w=800
37b62082-7716-4860-800a-88397a846da9,Misty Falls of Mahabaleshwar,Mahabaleshwar,Maharashtra,India,waterfall,"A stunning hidden waterfall tucked deep in the forest, accessible via a short trek.",50,low,Monsoon,"family,friends,backpacker",7.2715,79.0555,https://images.unsplash.com/photo-1433086966358-54859d0ed716?w=800
2487820a-1e3e-43c5-8595-a361901f9bff,The Little Cafe in Coorg,Coorg,Karnataka,India,cafe,"A charming tucked-away cafe loved by locals — great coffee, food, and ambiance.",0,low,Jul–Sep,"backpacker,couple,solo",11.2536,74.6535,https://images.unsplash.com/photo-1501339847302-ac426a4a7cbb?w=800
9a7b4357-9912-41c7-8b56-8fdae188f80d,Wadi Rum Secret Beach,Wadi Rum,Jordan,Jordan,beach,"A secluded beach hidden from mainstream tourists — crystal waters, untouched sands, and peaceful surroundings.",200,medium,Monsoon,"family,backpacker",-44.8893,121.6729,https://images.unsplash.com/photo-1507525428034-b723cf961d3e?w=800
608d5bf7-341a-440d-ba09-9419833552b2,Offbeat Kayaking in Ubud,Ubud,Bali,Spain,adventure,A hidden adventure spot offering thrills without the tourist rush.,750,low,Oct–Mar,solo,59.3154,-96.3541,https://images.unsplash.com/photo-1564769625905-50e93615e769?w=800
440f7a4e-02b0-4fbb-8366-2b64bc688d72,Sigiriya Secluded Shore,Sigiriya,Sri Lanka,France,beach,"A secluded beach hidden from mainstream tourists — crystal waters, untouched sands, and peaceful surroundings.",1500,low,Early Morning,"couple,solo,friends",47.8612,-83.6189,https://images.unsplash.com/photo-1507525428034-b723cf961d3e?w=800
60b59078-1a4b-454c-b0d7-0882f90089f8,Forgotten Fort of Jaipur,Jaipur,Rajasthan,India,historical,A forgotten historical site with rich stories and minimal crowds.,150,medium,Year-round,friends,30.8565,93.9868,https://images.unsplash.com/photo-1524492412937-b28074a5d7da?w=800
80b86549-cfa1-4de5-830a-e02e00edc115,Secret Summit Trail of Tbilisi,Tbilisi,Georgia,Indonesia,trek,An offbeat trekking trail offering panoramic views with very few other hikers.,100,low,Sunrise,"solo,friends",7.4335,106.1868,https://images.unsplash.com/photo-1551632811-561732d1e306?w=800
4b946824-4409-4ac1-8bde-09b63b4b7278,Jungle Waterfall near Lonavala,Lonavala,Maharashtra,India,waterfall,"A stunning hidden waterfall tucked deep in the forest, accessible via a short trek.",2000,low,Post-Monsoon,friends,9.9156,73.72,https://images.unsplash.com/photo-1433086966358-54859d0ed716?w=800
1e411af6-14ec-4e6b-82b2-8e0c0cf5d92c,Ancient Ruins near Hoi An,Hoi An,Vietnam,Italy,historical,A forgotten historical site with rich stories and minimal crowds.,50,medium,Jul–Sep,"solo,backpacker",4.8159,111.2152,https://images.unsplash.com/photo-1524492412937-b28074a5d7da?w=800
414dbcbb-dfeb-4043-bc68-c497e1b4d6eb,Hidden Pass near Canggu,Canggu,Bali,Spain,trek,An offbeat trekking trail offering panoramic views with very few other hikers.,200,medium,Year-round,solo,-41.7964,-76.9101,https://images.unsplash.com/photo-1551632811-561732d1e306?w=800
172b2f38-5c32-4ca2-9dbd-77183c5a429b,Hidden Cove of Spiti,Spiti,Himachal Pradesh,India,beach,"A secluded beach hidden from mainstream tourists — crystal waters, untouched sands, and peaceful surroundings.",150,medium,Early Morning,couple,20.3934,74.3735,https://images.unsplash.com/photo-1507525428034-b723cf961d3e?w=800
2ec88ddd-7c98-48d9-be1a-addb48dfa418,Secret Garden of Ubud,Ubud,Bali,Morocco,nature,"A pristine natural spot rarely visited — pure air, lush greenery, and tranquility.",300,medium,Early Morning,"friends,backpacker,solo",-20.1504,147.3803,https://images.unsplash.com/photo-1441974231531-c6227db76b6e?w=800
37950bb2-6f43-4071-a03f-4d72b1dd65d4,The Bohemian Cup in Jaisalmer,Jaisalmer,Rajasthan,India,cafe,"A charming tucked-away cafe loved by locals — great coffee, food, and ambiance.",300,low,Monsoon,"family,backpacker,friends",29.3376,90.9982,https://images.unsplash.com/photo-1501339847302-ac426a4a7cbb?w=800
0fcc5768-e8c3-46b3-994d-4dd1b9e65c77,Misty Falls of Hampi,Hampi,Karnataka,India,waterfall,"A stunning hidden waterfall tucked deep in the forest, accessible via a short trek.",1000,low,Jul–Sep,"backpacker,friends",11.0207,75.1671,https://images.unsplash.com/photo-1433086966358-54859d0ed716?w=800
d560b812-868f-4302-b52b-612efc67ce07,Cherrapunji Sunrise Point,Cherrapunji,Meghalaya,India,viewpoint,A hidden hilltop viewpoint offering breathtaking panoramic vistas most tourists miss.,500,medium,Sunset,family,28.6628,89.0217,https://images.unsplash.com/photo-1506905925346-21bda4d32df4?w=800
92fd0eb0-6f94-4e56-a8f7-69c81a5c5c2c,Visakhapatnam Secret Beach,Visakhapatnam,Andhra Pradesh,India,beach,"A secluded beach hidden from mainstream tourists — crystal waters, untouched sands, and peaceful surroundings.",300,medium,Year-round,backpacker,17.4399,85.4051,https://images.unsplash.com/photo-1507525428034-b723cf961d3e?w=800
fb766f40-89d9-450e-a6b3-77d8e36027f9,The Little Cafe in Civita di Bagnoregio,Civita di Bagnoregio,Italy,Italy,cafe,"A charming tucked-away cafe loved by locals — great coffee, food, and ambiance.",750,medium,Oct–Mar,"friends,family,solo",-27.6635,-96.6223,https://images.unsplash.com/photo-1501339847302-ac426a4a7cbb?w=800
aca3908a-e983-44b2-9368-fb1566885266,Kampot Secluded Shore,Kampot,Cambodia,Australia,beach,"A secluded beach hidden from mainstream tourists — crystal waters, untouched sands, and peaceful surroundings.",2000,low,Early Morning,solo,-34.815,-123.0335,https://images.unsplash.com/photo-1507525428034-b723cf961d3e?w=800
a7bae4f8-5745-4010-bc57-58f5f007c954,Ella Valley Trek,Ella,Sri Lanka,Sri Lanka,trek,An offbeat trekking trail offering panoramic views with very few other hikers.,400,low,Oct–Mar,"backpacker,solo",43.0878,-104.4881,https://images.unsplash.com/photo-1551632811-561732d1e306?w=800
78062f55-b03d-4a86-861d-b0dd992823b8,Bandipur Sunrise Point,Bandipur,Nepal,Sri Lanka,viewpoint,A hidden hilltop viewpoint offering breathtaking panoramic vistas most tourists miss.,1500,medium,Sunrise,"friends,backpacker,solo",52.0449,-0.6869,https://images.unsplash.com/photo-1506905925346-21bda4d32df4?w=800
978c099a-6454-4909-b2b8-adcc186d61f9,Hidden Temple in Kodaikanal,Kodaikanal,Tamil Nadu,India,historical,A forgotten historical site with rich stories and minimal crowds.,1500,medium,Early Morning,"friends,backpacker,couple",24.5514,92.5886,https://images.unsplash.com/photo-1524492412937-b28074a5d7da?w=800
72711c0b-2755-4f06-a22d-459fc52d52e3,Ancient Ruins near Kampot,Kampot,Cambodia,Vietnam,historical,A forgotten historical site with rich stories and minimal crowds.,1500,low,Nov–Feb,"backpacker,family",0.2431,-31.6273,https://images.unsplash.com/photo-1524492412937-b28074a5d7da?w=800
8d6b4782-d4de-43e3-aed1-82682777ee5f,Ghent Panorama Point,Ghent,Belgium,Indonesia,viewpoint,A hidden hilltop viewpoint offering breathtaking panoramic vistas most tourists miss.,150,medium,Post-Monsoon,solo,32.2897,-93.3175,https://images.unsplash.com/photo-1506905925346-21bda4d32df4?w=800
729ca700-46e7-4d51-8f22-8437ca3e56c4,Untouched Sands of Ninh Binh,Ninh Binh,Vietnam,Australia,beach,"A secluded beach hidden from mainstream tourists — crystal waters, untouched sands, and peaceful surroundings.",300,low,Post-Monsoon,"friends,couple",35.8577,-37.8116,https://images.unsplash.com/photo-1507525428034-b723cf961d3e?w=800
e4eaf283-ef54-45cd-80dc-7eb8b47df791,Hidden Pass near Gokarna,Gokarna,Karnataka,India,trek,An offbeat trekking trail offering panoramic views with very few other hikers.,500,medium,Post-Monsoon,"couple,friends,backpacker",22.8697,71.2088,https://images.unsplash.com/photo-1551632811-561732d1e306?w=800
ed0a6690-a439-44f2-a9c5-24d47032d198,Secret Zip Line near Gokarna,Gokarna,Karnataka,India,adventure,A hidden adventure spot offering thrills without the tourist rush.,750,low,Nov–Feb,"family,couple,solo",22.0714,78.8926,https://images.unsplash.com/photo-1564769625905-50e93615e769?w=800
b476af11-f7d0-4b1d-8608-ba59973414e0,Hidden Temple in Gokarna,Gokarna,Karnataka,India,historical,A forgotten historical site with rich stories and minimal crowds.,300,low,Early Morning,"friends,family",11.9835,93.5576,https://images.unsplash.com/photo-1524492412937-b28074a5d7da?w=800
591c4a37-f9a4-4836-baf7-af754195ca02,The Wild Camp at Plovdiv,Plovdiv,Bulgaria,Jordan,adventure,A hidden adventure spot offering thrills without the tourist rush.,200,low,Jul–Sep,"couple,family,backpacker",13.8597,104.2148,https://images.unsplash.com/photo-1564769625905-50e93615e769?w=800
29a81582-423a-4c4a-8000-5e4e3e5f9a3f,Secret Vista of Puri,Puri,Odisha,India,viewpoint,A hidden hilltop viewpoint offering breathtaking panoramic vistas most tourists miss.,300,medium,Early Morning,solo,29.9779,75.7008,https://images.unsplash.com/photo-1506905925346-21bda4d32df4?w=800
b1e33b40-51ee-48b9-94d4-3c6160d1edec,Visakhapatnam Sunrise Point,Visakhapatnam,Andhra Pradesh,India,viewpoint,A hidden hilltop viewpoint offering breathtaking panoramic vistas most tourists miss.,200,medium,Post-Monsoon,"family,solo,couple",11.512,78.947,https://images.unsplash.com/photo-1506905925346-21bda4d32df4?w=800
87994929-7c82-4f5b-8285-8cdc94bc180f,Hidden Valley of Swakopmund,Swakopmund,Namibia,Morocco,nature,"A pristine natural spot rarely visited — pure air, lush greenery, and tranquility.",1000,low,Year-round,backpacker,-14.0956,110.0661,https://images.unsplash.com/photo-1441974231531-c6227db76b6e?w=800
129dd31d-b46b-4de1-b6ff-48984e4487e6,The Bohemian Cup in Hoi An,Hoi An,Vietnam,Italy,cafe,"A charming tucked-away cafe loved by locals — great coffee, food, and ambiance.",1500,low,Oct–Mar,"solo,family",14.7794,98.9289,https://images.unsplash.com/photo-1501339847302-ac426a4a7cbb?w=800
0f7a697e-5db9-4820-a673-bf97c8a999c3,Offbeat Trek to Mahabaleshwar,Mahabaleshwar,Maharashtra,India,trek,An offbeat trekking trail offering panoramic views with very few other hikers.,750,low,Jul–Sep,"backpacker,couple,friends",10.6609,72.9535,https://images.unsplash.com/photo-1551632811-561732d1e306?w=800
0238495b-9780-46ae-87e6-4fc3fa6fead6,Secret Zip Line near Pai,Pai,Thailand,Italy,adventure,A hidden adventure spot offering thrills without the tourist rush.,750,medium,Nov–Feb,backpacker,-10.849,118.1702,https://images.unsplash.com/photo-1564769625905-50e93615e769?w=800
c25ddcb8-9f7d-4c8d-b761-c5ec2d43ecfe,Jungle Waterfall near Franz Josef,Franz Josef,New Zealand,Spain,waterfall,"A stunning hidden waterfall tucked deep in the forest, accessible via a short trek.",150,low,Year-round,"family,couple,friends",48.0092,-107.0629,https://images.unsplash.com/photo-1433086966358-54859d0ed716?w=800
a0e58ec0-da3e-48d5-9fad-06332ca88282,Misty Falls of Canggu,Canggu,Bali,New Zealand,waterfall,"A stunning hidden waterfall tucked deep in the forest, accessible via a short trek.",300,low,Jul–Sep,"friends,family",36.3326,-115.2953,https://images.unsplash.com/photo-1433086966358-54859d0ed716?w=800
f9403718-5de3-482d-bb91-2e4ed021c06f,The Forgotten Lookout in Tbilisi,Tbilisi,Georgia,Sri Lanka,viewpoint,A hidden hilltop viewpoint offering breathtaking panoramic vistas most tourists miss.,0,low,Early Morning,backpacker,54.2628,-87.5175,https://images.unsplash.com/photo-1506905925346-21bda4d32df4?w=800
465cc9e9-2401-4362-8493-130ef935e1fa,Untouched Sands of Varanasi,Varanasi,Uttar Pradesh,India,beach,"A secluded beach hidden from mainstream tourists — crystal waters, untouched sands, and peaceful surroundings.",0,low,Early Morning,"couple,family",25.4614,85.519,https://images.unsplash.com/photo-1507525428034-b723cf961d3e?w=800
a847cb63-8bb0-4bd7-97e1-cacdeb4c23f9,Goa Cliff Jump,Goa,Goa,India,adventure,A hidden adventure spot offering thrills without the tourist rush.,1500,medium,Oct–Mar,solo,32.376,76.9752,https://images.unsplash.com/photo-1564769625905-50e93615e769?w=800
1734ce31-b893-4e16-a48c-bdc309a11e8f,Hidden Viewpoint at Gokarna,Gokarna,Karnataka,India,viewpoint,A hidden hilltop viewpoint offering breathtaking panoramic vistas most tourists miss.,200,medium,Early Morning,"solo,couple",10.4741,73.5614,https://images.unsplash.com/photo-1506905925346-21bda4d32df4?w=800
2c2e109a-1e0c-4fb7-9334-8a6154d887ac,The Lost Stepwell of Visakhapatnam,Visakhapatnam,Andhra Pradesh,India,historical,A forgotten historical site with rich stories and minimal crowds.,1000,low,Early Morning,"friends,family,backpacker",29.8944,84.6945,https://images.unsplash.com/photo-1524492412937-b28074a5d7da?w=800
6654b3f2-395b-4b6b-92f0-bad5ae581df2,Hidden Temple in Matera,Matera,Italy,Jordan,historical,A forgotten historical site with rich stories and minimal crowds.,50,low,Jul–Sep,"solo,couple,family",-29.4521,-9.4951,https://images.unsplash.com/photo-1524492412937-b28074a5d7da?w=800
791719e4-9c4d-4866-a702-809c48de2ebe,Kodaikanal Valley Trek,Kodaikanal,Tamil Nadu,India,trek,An offbeat trekking trail offering panoramic views with very few other hikers.,50,low,Apr–Jun,"couple,solo",34.5496,67.6925,https://images.unsplash.com/photo-1551632811-561732d1e306?w=800
f1895052-c841-4aab-8df1-488913d51862,Hidden Brew of Leh,Leh,Ladakh,India,cafe,"A charming tucked-away cafe loved by locals — great coffee, food, and ambiance.",300,low,Sunset,"friends,solo,backpacker",33.8986,80.9484,https://images.unsplash.com/photo-1501339847302-ac426a4a7cbb?w=800
173da8e7-6bbd-46ca-87ad-9c9d4f9ec2ad,Shimla Rooftop Cafe,Shimla,Himachal Pradesh,India,cafe,"A charming tucked-away cafe loved by locals — great coffee, food, and ambiance.",300,medium,Apr–Jun,friends,27.0276,85.2941,https://images.unsplash.com/photo-1501339847302-ac426a4a7cbb?w=800
2258b0bd-6a71-492c-bb90-7008099a28a1,The Forgotten Lookout in Kampot,Kampot,Cambodia,Vietnam,viewpoint,A hidden hilltop viewpoint offering breathtaking panoramic vistas most tourists miss.,100,low,Sunrise,"couple,friends,backpacker",25.9916,-70.7741,https://images.unsplash.com/photo-1506905925346-21bda4d32df4?w=800
6728655c-3406-415c-814d-0762a7b98c83,The Little Cafe in Pokhara,Pokhara,Nepal,Greece,cafe,"A charming tucked-away cafe loved by locals — great coffee, food, and ambiance.",1500,low,Sunset,"couple,family",44.0455,156.0932,https://images.unsplash.com/photo-1501339847302-ac426a4a7cbb?w=800
be588d53-bf4d-4fc8-92f2-c44dd9570e3b,Secret Zip Line near Essaouira,Essaouira,Morocco,Thailand,adventure,A hidden adventure spot offering thrills without the tourist rush.,1000,low,Monsoon,"couple,friends,backpacker",64.0509,-41.6109,https://images.unsplash.com/photo-1564769625905-50e93615e769?w=800
10733881-769a-4593-9c67-9db9931963b9,Hoi An Ridge Trail,Hoi An,Vietnam,Japan,trek,An offbeat trekking trail offering panoramic views with very few other hikers.,0,medium,Post-Monsoon,backpacker,-44.8313,-110.7952,https://images.unsplash.com/photo-1551632811-561732d1e306?w=800
f3937802-63ab-4e5a-b09f-66720588fa9c,Hidden Valley of Wadi Rum,Wadi Rum,Jordan,Thailand,nature,"A pristine natural spot rarely visited — pure air, lush greenery, and tranquility.",200,medium,Apr–Jun,"friends,family,backpacker",-5.725,74.0455,https://images.unsplash.com/photo-1441974231531-c6227db76b6e?w=800
af3fc618-d6a2-4be3-8799-ac5db9ad389e,Secret Summit Trail of Kodaikanal,Kodaikanal,Tamil Nadu,India,trek,An offbeat trekking trail offering panoramic views with very few other hikers.,50,low,Jul–Sep,family,30.8066,77.8573,https://images.unsplash.com/photo-1551632811-561732d1e306?w=800
febc44dc-23fa-4fd5-9645-0d29400b77fa,Hidden Cove of Positano,Positano,Italy,New Zealand,beach,"A secluded beach hidden from mainstream tourists — crystal waters, untouched sands, and peaceful surroundings.",50,medium,Monsoon,"solo,friends,couple",-39.7497,-103.4597,https://images.unsplash.com/photo-1507525428034-b723cf961d3e?w=800
fb82a76c-ae45-4ca1-a978-a03107e01f7d,Enchanted Forest of Kampot,Kampot,Cambodia,Greece,nature,"A pristine natural spot rarely visited — pure air, lush greenery, and tranquility.",300,medium,Post-Monsoon,"couple,friends,backpacker",-37.6229,51.0942,https://images.unsplash.com/photo-1441974231531-c6227db76b6e?w=800
4ee24c42-c5d6-4361-b3a4-626cc6629e8c,Nainital Valley Trek,Nainital,Uttarakhand,India,trek,An offbeat trekking trail offering panoramic views with very few other hikers.,0,low,Post-Monsoon,solo,29.7299,87.3637,https://images.unsplash.com/photo-1551632811-561732d1e306?w=800
9db07fda-aab6-47b1-9683-749d54951dd0,The Forgotten Lookout in Canggu,Canggu,Bali,New Zealand,viewpoint,A hidden hilltop viewpoint offering breathtaking panoramic vistas most tourists miss.,300,medium,Monsoon,"friends,family,backpacker",49.3934,76.7291,https://images.unsplash.com/photo-1506905925346-21bda4d32df4?w=800
e90bcbde-e847-4819-bdd0-8769dbaec3aa,Ooty Sacred Grove,Ooty,Tamil Nadu,India,nature,"A pristine natural spot rarely visited — pure air, lush greenery, and tranquility.",0,low,Jul–Sep,"friends,family,backpacker",29.3857,94.4283,https://images.unsplash.com/photo-1441974231531-c6227db76b6e?w=800
906bf436-82ee-4fde-9bf6-3b651b66a880,Jungle Waterfall near Cherrapunji,Cherrapunji,Meghalaya,India,waterfall,"A stunning hidden waterfall tucked deep in the forest, accessible via a short trek.",150,medium,Jul–Sep,"couple,family,solo",30.7469,68.1068,https://images.unsplash.com/photo-1433086966358-54859d0ed716?w=800
a36c841e-eb09-41e0-a88c-ce001d26023a,Secret Vista of Chefchaouen,Chefchaouen,Morocco,Portugal,viewpoint,A hidden hilltop viewpoint offering breathtaking panoramic vistas most tourists miss.,1000,medium,Year-round,"friends,backpacker",-42.8498,-73.1229,https://images.unsplash.com/photo-1506905925346-21bda4d32df4?w=800
3b6f5c6f-a8f3-45c4-b8a0-dd883b7c4848,Hidden Viewpoint at Chefchaouen,Chefchaouen,Morocco,Japan,viewpoint,A hidden hilltop viewpoint offering breathtaking panoramic vistas most tourists miss.,50,medium,Sunrise,"solo,family",2.8251,119.6939,https://images.unsplash.com/photo-1506905925346-21bda4d32df4?w=800
c123a61d-396d-46aa-b821-efb323405464,Ubud Ridge Trail,Ubud,Bali,Sri Lanka,trek,An offbeat trekking trail offering panoramic views with very few other hikers.,0,low,Sunset,backpacker,-13.987,-23.2891,https://images.unsplash.com/photo-1551632811-561732d1e306?w=800
9a15a433-0a3c-4791-a2e2-2f6bd2b00257,Essaouira Ridge Trail,Essaouira,Morocco,Spain,trek,An offbeat trekking trail offering panoramic views with very few other hikers.,500,medium,Apr–Jun,"couple,family",7.1576,-121.8009,https://images.unsplash.com/photo-1551632811-561732d1e306?w=800
35679985-62f9-420a-8f39-ff14519d6a88,Secret Garden of Ghent,Ghent,Belgium,Italy,nature,"A pristine natural spot rarely visited — pure air, lush greenery, and tranquility.",200,medium,Monsoon,backpacker,-24.0085,135.6456,https://images.unsplash.com/photo-1441974231531-c6227db76b6e?w=800
40088b6a-6c20-4582-98b2-70e355f2a7a5,Hidden Temple in Ubud,Ubud,Bali,Italy,historical,A forgotten historical site with rich stories and minimal crowds.,50,low,Nov–Feb,backpacker,0.4519,-87.812,https://images.unsplash.com/photo-1524492412937-b28074a5d7da?w=800
8c609cb6-84ee-434d-bbd9-428d17102f1f,Hallstatt Virgin Beach,Hallstatt,Austria,Japan,beach,"A secluded beach hidden from mainstream tourists — crystal waters, untouched sands, and peaceful surroundings.",200,low,Sunset,"backpacker,couple,solo",51.5781,-3.3293,https://images.unsplash.com/photo-1507525428034-b723cf961d3e?w=800
910135d5-4fb0-43d8-a12a-0b6789ed21e3,Civita di Bagnoregio Hidden Falls,Civita di Bagnoregio,Italy,Morocco,waterfall,"A stunning hidden waterfall tucked deep in the forest, accessible via a short trek.",400,low,Oct–Mar,backpacker,2.6677,35.0762,https://images.unsplash.com/photo-1433086966358-54859d0ed716?w=800
857c982d-1900-4924-a335-1eb89be02acd,Darjeeling Cascade,Darjeeling,West Bengal,India,waterfall,"A stunning hidden waterfall tucked deep in the forest, accessible via a short trek.",200,low,Nov–Feb,family,14.5767,95.238,https://images.unsplash.com/photo-1433086966358-54859d0ed716?w=800
c05632da-163b-46ac-93e6-4481afb649c3,The Forgotten Lookout in Pokhara,Pokhara,Nepal,New Zealand,viewpoint,A hidden hilltop viewpoint offering breathtaking panoramic vistas most tourists miss.,150,low,Apr–Jun,"couple,solo,family",-15.6508,-77.4869,https://images.unsplash.com/photo-1506905925346-21bda4d32df4?w=800
83a969c5-6fb0-4378-80e8-07678ebd9b55,Hidden Cave Monastery at Alleppey,Alleppey,Kerala,India,historical,A forgotten historical site with rich stories and minimal crowds.,1500,medium,Year-round,friends,33.5731,89.0838,https://images.unsplash.com/photo-1524492412937-b28074a5d7da?w=800
a92294fe-69ac-4648-bea8-5c36e3809521,Secret Vista of Wadi Rum,Wadi Rum,Jordan,Greece,viewpoint,A hidden hilltop viewpoint offering breathtaking panoramic vistas most tourists miss.,150,medium,Early Morning,"backpacker,family",20.2581,160.4557,https://images.unsplash.com/photo-1506905925346-21bda4d32df4?w=800
35433384-bfaf-4a63-b958-c3261b3c88bb,Hidden Cove of Badami,Badami,Karnataka,India,beach,"A secluded beach hidden from mainstream tourists — crystal waters, untouched sands, and peaceful surroundings.",2000,medium,Jul–Sep,"backpacker,couple",33.7033,91.4982,https://images.unsplash.com/photo-1507525428034-b723cf961d3e?w=800
63f941e9-ea7f-41c9-8423-75027ed82be8,Hidden Rappelling at Chikmagalur,Chikmagalur,Karnataka,India,adventure,A hidden adventure spot offering thrills without the tourist rush.,400,low,Early Morning,"couple,solo,backpacker",8.7755,97.7116,https://images.unsplash.com/photo-1564769625905-50e93615e769?w=800
10e343ed-2f30-47e2-8126-87c5df5dea0f,The Forgotten Lookout in Kodaikanal,Kodaikanal,Tamil Nadu,India,viewpoint,A hidden hilltop viewpoint offering breathtaking panoramic vistas most tourists miss.,1000,medium,Apr–Jun,"backpacker,family,friends",24.2366,79.8416,https://images.unsplash.com/photo-1506905925346-21bda4d32df4?w=800
24193962-423a-45cd-ad21-7b9b924f12ec,Hidden Brew of Chikmagalur,Chikmagalur,Karnataka,India,cafe,"A charming tucked-away cafe loved by locals — great coffee, food, and ambiance.",200,low,Jul–Sep,"solo,backpacker",12.7979,77.0045,https://images.unsplash.com/photo-1501339847302-ac426a4a7cbb?w=800
1b662278-d262-4c21-ab9e-1efe12392917,The Wild Camp at Kampot,Kampot,Cambodia,Greece,adventure,A hidden adventure spot offering thrills without the tourist rush.,50,low,Year-round,"family,couple",-21.0016,111.4137,https://images.unsplash.com/photo-1564769625905-50e93615e769?w=800
062cca54-e1b4-407e-ab57-70497f0d10c8,Hidden Brew of Jodhpur,Jodhpur,Rajasthan,India,cafe,"A charming tucked-away cafe loved by locals — great coffee, food, and ambiance.",1500,medium,Jul–Sep,"family,friends,solo",28.3071,72.3029,https://images.unsplash.com/photo-1501339847302-ac426a4a7cbb?w=800
f84ccfbc-ec4d-44e8-9ccf-0c809a5701b3,Hidden Temple in Queenstown,Queenstown,New Zealand,Indonesia,historical,A forgotten historical site with rich stories and minimal crowds.,400,medium,Oct–Mar,"backpacker,family,solo",34.6999,110.7585,https://images.unsplash.com/photo-1524492412937-b28074a5d7da?w=800
52d9a4f9-6ff9-41f2-a36f-e39d3e3ef870,Ancient Ruins near Kasol,Kasol,Himachal Pradesh,India,historical,A forgotten historical site with rich stories and minimal crowds.,1500,medium,Year-round,"solo,friends,family",23.9908,75.3907,https://images.unsplash.com/photo-1524492412937-b28074a5d7da?w=800
bdcc9bab-be3b-4347-ab0f-4d2199fc8b0a,Jaipur Rooftop Cafe,Jaipur,Rajasthan,India,cafe,"A charming tucked-away cafe loved by locals — great coffee, food, and ambiance.",0,low,Early Morning,backpacker,27.17,79.3102,https://images.unsplash.com/photo-1501339847302-ac426a4a7cbb?w=800
a81f5c25-e940-4746-8f34-1c583828852b,Jungle Waterfall near Kodaikanal,Kodaikanal,Tamil Nadu,India,waterfall,"A stunning hidden waterfall tucked deep in the forest, accessible via a short trek.",50,medium,Sunrise,friends,20.6323,93.8628,https://images.unsplash.com/photo-1433086966358-54859d0ed716?w=800
8ca5b1da-fa5d-4f39-a9fb-76f4d0e9de3f,The Lost Stepwell of Ninh Binh,Ninh Binh,Vietnam,Australia,historical,A forgotten historical site with rich stories and minimal crowds.,50,medium,Sunset,"solo,backpacker",27.315,23.2788,https://images.unsplash.com/photo-1524492412937-b28074a5d7da?w=800
f1e642ec-d248-4592-aa8e-35d8aceed6eb,The Secret Waterfall near Varanasi,Varanasi,Uttar Pradesh,India,waterfall,"A stunning hidden waterfall tucked deep in the forest, accessible via a short trek.",200,medium,Monsoon,friends,8.2202,96.2954,https://images.unsplash.com/photo-1433086966358-54859d0ed716?w=800
1ed2a7a5-cef5-4628-8266-c0d21bbe6b66,Untouched Sands of Plovdiv,Plovdiv,Bulgaria,Greece,beach,"A secluded beach hidden from mainstream tourists — crystal waters, untouched sands, and peaceful surroundings.",2000,low,Post-Monsoon,"friends,family,solo",4.9161,-8.3824,https://images.unsplash.com/photo-1507525428034-b723cf961d3e?w=800
f4562d29-855a-440e-94eb-86d22adc10f4,The Wild Camp at Munnar,Munnar,Kerala,India,adventure,A hidden adventure spot offering thrills without the tourist rush.,300,medium,Apr–Jun,"backpacker,friends",24.4669,75.439,https://images.unsplash.com/photo-1564769625905-50e93615e769?w=800
1b5cfc48-7379-4dcf-afd2-ba2a3ddb44fa,Ancient Ruins near Varanasi,Varanasi,Uttar Pradesh,India,historical,A forgotten historical site with rich stories and minimal crowds.,1500,low,Sunset,"family,couple",20.7583,72.8672,https://images.unsplash.com/photo-1524492412937-b28074a5d7da?w=800
faf95d2b-415e-40e8-a7ff-4dd9c8fcb45d,Spiti Secret Beach,Spiti,Himachal Pradesh,India,beach,"A secluded beach hidden from mainstream tourists — crystal waters, untouched sands, and peaceful surroundings.",0,medium,Nov–Feb,"solo,couple",13.9648,97.6641,https://images.unsplash.com/photo-1507525428034-b723cf961d3e?w=800
0deffd79-ca2a-4d17-9194-a2496a90a847,Misty Falls of Wayanad,Wayanad,Kerala,India,waterfall,"A stunning hidden waterfall tucked deep in the forest, accessible via a short trek.",750,medium,Nov–Feb,"friends,solo,couple",24.7941,86.7786,https://images.unsplash.com/photo-1433086966358-54859d0ed716?w=800
6084a121-32cb-4123-b8e5-b332c07453f8,Hidden Brew of Rishikesh,Rishikesh,Uttarakhand,India,cafe,"A charming tucked-away cafe loved by locals — great coffee, food, and ambiance.",0,medium,Monsoon,friends,18.0624,78.8622,https://images.unsplash.com/photo-1501339847302-ac426a4a7cbb?w=800
30e22c9f-0d7a-41ec-bf82-3ade2882f020,The Lost Stepwell of Alleppey,Alleppey,Kerala,India,historical,A forgotten historical site with rich stories and minimal crowds.,200,medium,Post-Monsoon,"family,solo,couple",27.774,91.9188,https://images.unsplash.com/photo-1524492412937-b28074a5d7da?w=800
e3fcaef5-1fc0-4668-bc17-dd6855f2e5ef,The Wild Camp at Plovdiv,Plovdiv,Bulgaria,Vietnam,adventure,A hidden adventure spot offering thrills without the tourist rush.,500,low,Sunset,couple,19.0798,-40.4367,https://images.unsplash.com/photo-1564769625905-50e93615e769?w=800
4871a780-ea56-4c64-b02e-b9855b6af4fc,Secret Garden Cafe near Jaipur,Jaipur,Rajasthan,India,cafe,"A charming tucked-away cafe loved by locals — great coffee, food, and ambiance.",1500,medium,Year-round,"couple,solo",33.4955,71.1365,https://images.unsplash.com/photo-1501339847302-ac426a4a7cbb?w=800
70d82cc1-27e2-4d40-84f1-5fea26e37477,Hidden Cove of Spiti,Spiti,Himachal Pradesh,India,beach,"A secluded beach hidden from mainstream tourists — crystal waters, untouched sands, and peaceful surroundings.",1500,low,Apr–Jun,friends,9.9163,77.3156,https://images.unsplash.com/photo-1507525428034-b723cf961d3e?w=800
7ea4d6a5-aad1-4c2c-8795-fa1bfacd3359,Hallstatt Secluded Shore,Hallstatt,Austria,Thailand,beach,"A secluded beach hidden from mainstream tourists — crystal waters, untouched sands, and peaceful surroundings.",1500,low,Post-Monsoon,solo,-24.2721,-116.2567,https://images.unsplash.com/photo-1507525428034-b723cf961d3e?w=800
d5830c35-360d-4c32-9f57-6ba7fa658f3e,Queenstown Cliff Jump,Queenstown,New Zealand,Sri Lanka,adventure,A hidden adventure spot offering thrills without the tourist rush.,0,low,Apr–Jun,"friends,family,solo",33.7785,107.4662,https://images.unsplash.com/photo-1564769625905-50e93615e769?w=800
84e7ce58-25c0-4de6-9f2e-f3a16e2f5317,Essaouira Valley Trek,Essaouira,Morocco,Spain,trek,An offbeat trekking trail offering panoramic views with very few other hikers.,400,low,Apr–Jun,"backpacker,couple",60.632,-10.1516,https://images.unsplash.com/photo-1551632811-561732d1e306?w=800
b8eef842-a6f4-4d23-a2ad-281d99ebe09b,Hoi An Panorama Point,Hoi An,Vietnam,Australia,viewpoint,A hidden hilltop viewpoint offering breathtaking panoramic vistas most tourists miss.,1000,low,Monsoon,"solo,backpacker,friends",-23.9919,11.3902,https://images.unsplash.com/photo-1506905925346-21bda4d32df4?w=800
14ced1e4-6395-4368-a4d0-9041297d317e,Hidden Viewpoint at Ronda,Ronda,Spain,Portugal,viewpoint,A hidden hilltop viewpoint offering breathtaking panoramic vistas most tourists miss.,750,low,Nov–Feb,"family,backpacker,couple",39.2044,-21.6229,https://images.unsplash.com/photo-1506905925346-21bda4d32df4?w=800
82f09a28-070f-4224-8ff7-2581c2d0c82b,Jungle Waterfall near Chiang Rai,Chiang Rai,Thailand,Vietnam,waterfall,"A stunning hidden waterfall tucked deep in the forest, accessible via a short trek.",300,low,Year-round,"solo,backpacker,friends",32.4535,94.0132,https://images.unsplash.com/photo-1433086966358-54859d0ed716?w=800
d4d97866-fcf7-4534-9073-21a86d146be3,Secret Zip Line near Pokhara,Pokhara,Nepal,France,adventure,A hidden adventure spot offering thrills without the tourist rush.,1500,low,Post-Monsoon,"solo,friends,family",56.9107,68.7254,https://images.unsplash.com/photo-1564769625905-50e93615e769?w=800
d6928d7b-708f-4ce9-a6ce-74966f2b8556,Enchanted Forest of Gokarna,Gokarna,Karnataka,India,nature,"A pristine natural spot rarely visited — pure air, lush greenery, and tranquility.",1000,medium,Post-Monsoon,"couple,backpacker",9.2634,72.0663,https://images.unsplash.com/photo-1441974231531-c6227db76b6e?w=800
ad2063d3-663c-4506-9930-afb670d33bed,The Lost Stepwell of Visakhapatnam,Visakhapatnam,Andhra Pradesh,India,historical,A forgotten historical site with rich stories and minimal crowds.,200,low,Early Morning,"friends,couple,backpacker",26.4704,75.8646,https://images.unsplash.com/photo-1524492412937-b28074a5d7da?w=800
813278e2-9143-4105-b3ab-34240a2be95d,Secret Summit Trail of Ubud,Ubud,Bali,Morocco,trek,An offbeat trekking trail offering panoramic views with very few other hikers.,300,medium,Sunrise,"couple,family",-34.0924,119.682,https://images.unsplash.com/photo-1551632811-561732d1e306?w=800
00f23452-626e-4093-b4e0-32c379d8f227,Offbeat Trek to Jaisalmer,Jaisalmer,Rajasthan,India,trek,An offbeat trekking trail offering panoramic views with very few other hikers.,50,medium,Post-Monsoon,"backpacker,friends",32.2066,77.8148,https://images.unsplash.com/photo-1551632811-561732d1e306?w=800
136e80af-3c90-4e28-b2b4-e1cbe2fe851d,The Lost Lake near Cherrapunji,Cherrapunji,Meghalaya,India,nature,"A pristine natural spot rarely visited — pure air, lush greenery, and tranquility.",100,medium,Sunset,"solo,friends",30.9445,84.267,https://images.unsplash.com/photo-1441974231531-c6227db76b6e?w=800
8f3f8560-ca2e-4877-b480-e82a51d05868,Gangtok Valley Trek,Gangtok,Sikkim,India,trek,An offbeat trekking trail offering panoramic views with very few other hikers.,1000,low,Post-Monsoon,"couple,friends",31.483,85.4812,https://images.unsplash.com/photo-1551632811-561732d1e306?w=800
9ba6027c-f6a5-483d-901f-bbd1e7593d32,Jungle Waterfall near Shimla,Shimla,Himachal Pradesh,India,waterfall,"A stunning hidden waterfall tucked deep in the forest, accessible via a short trek.",500,medium,Oct–Mar,friends,22.7672,92.7953,https://images.unsplash.com/photo-1433086966358-54859d0ed716?w=800
271597cf-72e9-4867-9e5c-6870dfae613f,The Forgotten Lookout in Kasol,Kasol,Himachal Pradesh,India,viewpoint,A hidden hilltop viewpoint offering breathtaking panoramic vistas most tourists miss.,2000,low,Sunrise,backpacker,26.9477,82.6536,https://images.unsplash.com/photo-1506905925346-21bda4d32df4?w=800
0d96181f-5de7-4ba4-a031-ad85c2c49ed5,Untouched Sands of Jodhpur,Jodhpur,Rajasthan,India,beach,"A secluded beach hidden from mainstream tourists — crystal waters, untouched sands, and peaceful surroundings.",100,low,Post-Monsoon,"friends,family,backpacker",14.4518,87.754,https://images.unsplash.com/photo-1507525428034-b723cf961d3e?w=800
00a88c40-b397-407d-bed8-d06f39dd686c,The Little Cafe in Pokhara,Pokhara,Nepal,Indonesia,cafe,"A charming tucked-away cafe loved by locals — great coffee, food, and ambiance.",50,medium,Year-round,"solo,friends",13.2799,40.6136,https://images.unsplash.com/photo-1501339847302-ac426a4a7cbb?w=800
a1274c1b-e1c2-4427-aa0a-c4c3a409c78b,The Little Cafe in Luang Prabang,Luang Prabang,Laos,Australia,cafe,"A charming tucked-away cafe loved by locals — great coffee, food, and ambiance.",1000,medium,Apr–Jun,family,29.9791,49.3447,https://images.unsplash.com/photo-1501339847302-ac426a4a7cbb?w=800
73d17c43-2779-41c4-9824-18a5962699c8,Essaouira Virgin Beach,Essaouira,Morocco,Vietnam,beach,"A secluded beach hidden from mainstream tourists — crystal waters, untouched sands, and peaceful surroundings.",50,low,Apr–Jun,"friends,couple,solo",-27.1225,28.9735,https://images.unsplash.com/photo-1507525428034-b723cf961d3e?w=800
ae09d01e-8d22-4133-9462-c1f0f03e04c8,The Lost Stepwell of Nainital,Nainital,Uttarakhand,India,historical,A forgotten historical site with rich stories and minimal crowds.,1500,low,Post-Monsoon,family,29.4551,75.4061,https://images.unsplash.com/photo-1524492412937-b28074a5d7da?w=800
cfdd5003-d0ff-4428-adfc-cf389ae56745,Queenstown Panorama Point,Queenstown,New Zealand,France,viewpoint,A hidden hilltop viewpoint offering breathtaking panoramic vistas most tourists miss.,0,medium,Year-round,"couple,solo,friends",-6.9274,-51.2204,https://images.unsplash.com/photo-1506905925346-21bda4d32df4?w=800
db2522c8-4610-4f0c-9c44-3f099b8df2a1,Sigiriya Cascade,Sigiriya,Sri Lanka,Morocco,waterfall,"A stunning hidden waterfall tucked deep in the forest, accessible via a short trek.",50,low,Year-round,"couple,backpacker,family",-16.4269,84.4941,https://images.unsplash.com/photo-1433086966358-54859d0ed716?w=800
2ddb989e-a7e9-4576-994d-8e784780c36e,Forgotten Fort of Ronda,Ronda,Spain,Australia,historical,A forgotten historical site with rich stories and minimal crowds.,0,medium,Monsoon,"friends,family,couple",23.1375,118.061,https://images.unsplash.com/photo-1524492412937-b28074a5d7da?w=800
640ec82f-1da5-4af9-b68e-65a992e3ae6e,The Secret Waterfall near Pokhara,Pokhara,Nepal,Japan,waterfall,"A stunning hidden waterfall tucked deep in the forest, accessible via a short trek.",300,low,Post-Monsoon,"solo,backpacker",33.7519,47.0644,https://images.unsplash.com/photo-1433086966358-54859d0ed716?w=800
de3269e9-9fc3-4a79-a343-1903caccf05c,Kotor Ridge Trail,Kotor,Montenegro,Morocco,trek,An offbeat trekking trail offering panoramic views with very few other hikers.,500,medium,Jul–Sep,"backpacker,couple",44.2108,-73.8435,https://images.unsplash.com/photo-1551632811-561732d1e306?w=800
6d41ec8c-0d2b-4357-81f5-8fdb1db397e8,Hidden Temple in Wadi Rum,Wadi Rum,Jordan,Greece,historical,A forgotten historical site with rich stories and minimal crowds.,750,medium,Post-Monsoon,friends,-10.4799,97.8459,https://images.unsplash.com/photo-1524492412937-b28074a5d7da?w=800
17c0d120-8503-4824-98ad-ed7973412b1b,Misty Falls of Ronda,Ronda,Spain,Jordan,waterfall,"A stunning hidden waterfall tucked deep in the forest, accessible via a short trek.",500,low,Apr–Jun,friends,-16.8089,-122.0005,https://images.unsplash.com/photo-1433086966358-54859d0ed716?w=800
2e16426f-0574-48f6-bf51-e22a44d0810c,Untouched Sands of Goa,Goa,Goa,India,beach,"A secluded beach hidden from mainstream tourists — crystal waters, untouched sands, and peaceful surroundings.",50,medium,Apr–Jun,family,9.7316,79.9713,https://images.unsplash.com/photo-1507525428034-b723cf961d3e?w=800
b867b6fc-78c1-4e8e-850b-6f916bd861c6,Hidden Brew of Ronda,Ronda,Spain,Portugal,cafe,"A charming tucked-away cafe loved by locals — great coffee, food, and ambiance.",1000,medium,Jul–Sep,"couple,solo",15.3579,-76.8278,https://images.unsplash.com/photo-1501339847302-ac426a4a7cbb?w=800
6e2894e8-a233-459b-b25f-c120a4392713,Forgotten Fort of Bandipur,Bandipur,Nepal,Japan,historical,A forgotten historical site with rich stories and minimal crowds.,200,medium,Nov–Feb,friends,10.9591,-16.8782,https://images.unsplash.com/photo-1524492412937-b28074a5d7da?w=800
047eca19-0229-4a96-bc32-63c587070dde,Ghent Cascade,Ghent,Belgium,Nepal,waterfall,"A stunning hidden waterfall tucked deep in the forest, accessible via a short trek.",300,medium,Year-round,"couple,backpacker",-44.9448,-6.3629,https://images.unsplash.com/photo-1433086966358-54859d0ed716?w=800
7216b2a4-f36e-4a3d-8772-9381c8a3436a,Secret Garden of Udaipur,Udaipur,Rajasthan,India,nature,"A pristine natural spot rarely visited — pure air, lush greenery, and tranquility.",750,medium,Oct–Mar,"couple,family",10.254,96.1498,https://images.unsplash.com/photo-1441974231531-c6227db76b6e?w=800
dfa302a0-c42d-4ff5-9877-01b958c5df5c,Secret Summit Trail of Andaman,Andaman,Andaman,India,trek,An offbeat trekking trail offering panoramic views with very few other hikers.,200,low,Oct–Mar,"couple,family",32.8967,70.7257,https://images.unsplash.com/photo-1551632811-561732d1e306?w=800
1dacad07-a8fa-4321-bc80-0c08c6ce17b9,Hidden Temple in Essaouira,Essaouira,Morocco,Japan,historical,A forgotten historical site with rich stories and minimal crowds.,50,medium,Apr–Jun,"solo,friends",-27.9227,112.5594,https://images.unsplash.com/photo-1524492412937-b28074a5d7da?w=800
3b124c95-e7ea-4474-9281-b236424ac733,Hampi Cascade,Hampi,Karnataka,India,waterfall,"A stunning hidden waterfall tucked deep in the forest, accessible via a short trek.",200,low,Sunset,backpacker,26.7113,78.8403,https://images.unsplash.com/photo-1433086966358-54859d0ed716?w=800
e5a593a7-e8e3-4dad-a4e0-4ac97add879d,Chiang Rai Sunrise Point,Chiang Rai,Thailand,Italy,viewpoint,A hidden hilltop viewpoint offering breathtaking panoramic vistas most tourists miss.,50,low,Oct–Mar,"backpacker,solo,friends",29.8461,154.5224,https://images.unsplash.com/photo-1506905925346-21bda4d32df4?w=800
028a334c-71d5-4ae5-933e-65f849383943,Offbeat Kayaking in Franz Josef,Franz Josef,New Zealand,Vietnam,adventure,A hidden adventure spot offering thrills without the tourist rush.,750,medium,Monsoon,"solo,friends",11.7853,13.1147,https://images.unsplash.com/photo-1564769625905-50e93615e769?w=800
ced44ef3-fc8b-4c1c-97ae-b772059ab27a,Offbeat Kayaking in Chefchaouen,Chefchaouen,Morocco,Nepal,adventure,A hidden adventure spot offering thrills without the tourist rush.,1500,low,Post-Monsoon,solo,27.6138,55.7749,https://images.unsplash.com/photo-1564769625905-50e93615e769?w=800
782be4fb-d404-4831-be43-8f45c5b1eab3,The Forgotten Lookout in Spiti,Spiti,Himachal Pradesh,India,viewpoint,A hidden hilltop viewpoint offering breathtaking panoramic vistas most tourists miss.,750,medium,Nov–Feb,family,28.037,69.2321,https://images.unsplash.com/photo-1506905925346-21bda4d32df4?w=800
38d241f4-2f18-4db2-a2ea-c5ebe6e13aa4,Enchanted Forest of Lonavala,Lonavala,Maharashtra,India,nature,"A pristine natural spot rarely visited — pure air, lush greenery, and tranquility.",500,low,Nov–Feb,couple,7.7933,79.6289,https://images.unsplash.com/photo-1441974231531-c6227db76b6e?w=800
215b35f7-e090-4281-9c73-d7a74e530e3e,Hallstatt Sunrise Point,Hallstatt,Austria,Sri Lanka,viewpoint,A hidden hilltop viewpoint offering breathtaking panoramic vistas most tourists miss.,500,medium,Jul–Sep,backpacker,57.3855,86.2319,https://images.unsplash.com/photo-1506905925346-21bda4d32df4?w=800
ac25fa51-86b9-45a4-a472-2d81ac65be9d,Chefchaouen Ridge Trail,Chefchaouen,Morocco,New Zealand,trek,An offbeat trekking trail offering panoramic views with very few other hikers.,1500,medium,Sunrise,"family,backpacker",19.8653,113.1884,https://images.unsplash.com/photo-1551632811-561732d1e306?w=800
932a20c5-616a-4f88-934f-b55c01345b2a,Hidden Pass near Gokarna,Gokarna,Karnataka,India,trek,An offbeat trekking trail offering panoramic views with very few other hikers.,50,low,Post-Monsoon,backpacker,31.4525,93.6355,https://images.unsplash.com/photo-1551632811-561732d1e306?w=800
70c62952-553b-4f8d-a412-c5aa0ffbbd07,The Wild Camp at Civita di Bagnoregio,Civita di Bagnoregio,Italy,Sri Lanka,adventure,A hidden adventure spot offering thrills without the tourist rush.,1500,medium,Year-round,friends,39.0736,-92.5461,https://images.unsplash.com/photo-1564769625905-50e93615e769?w=800
4e76b033-b464-48a1-9571-3536d53c5d0e,Offbeat Trek to Rishikesh,Rishikesh,Uttarakhand,India,trek,An offbeat trekking trail offering panoramic views with very few other hikers.,150,medium,Sunrise,family,16.2954,74.6076,https://images.unsplash.com/photo-1551632811-561732d1e306?w=800
5d8059b8-be61-4aab-87e3-f769b34ab8e7,Offbeat Trek to Kotor,Kotor,Montenegro,Indonesia,trek,An offbeat trekking trail offering panoramic views with very few other hikers.,200,low,Apr–Jun,couple,-10.2276,-78.8032,https://images.unsplash.com/photo-1551632811-561732d1e306?w=800
27cd7967-7ac8-42cc-829a-3f43f8d22497,Hidden Cove of Ronda,Ronda,Spain,New Zealand,beach,"A secluded beach hidden from mainstream tourists — crystal waters, untouched sands, and peaceful surroundings.",2000,low,Sunrise,"friends,solo,backpacker",50.9597,75.4562,https://images.unsplash.com/photo-1507525428034-b723cf961d3e?w=800
5309ac9a-2b90-4cc0-b813-8befa6778ca3,Ghent Virgin Beach,Ghent,Belgium,Morocco,beach,"A secluded beach hidden from mainstream tourists — crystal waters, untouched sands, and peaceful surroundings.",100,medium,Post-Monsoon,couple,46.7285,101.3489,https://images.unsplash.com/photo-1507525428034-b723cf961d3e?w=800
ad86e33d-f4f4-4ff9-9112-749a07e92447,Hidden Valley of Gangtok,Gangtok,Sikkim,India,nature,"A pristine natural spot rarely visited — pure air, lush greenery, and tranquility.",1500,medium,Early Morning,friends,9.0447,74.8037,https://images.unsplash.com/photo-1441974231531-c6227db76b6e?w=800
de92b8c6-f328-4821-be3a-a9d63d7a2905,Enchanted Forest of Civita di Bagnoregio,Civita di Bagnoregio,Italy,Thailand,nature,"A pristine natural spot rarely visited — pure air, lush greenery, and tranquility.",300,low,Year-round,"couple,family,solo",-41.2869,29.8035,https://images.unsplash.com/photo-1441974231531-c6227db76b6e?w=800
ed63e520-2d55-4a6b-8cba-0eacc8ddcd22,Tbilisi Sunrise Point,Tbilisi,Georgia,Spain,viewpoint,A hidden hilltop viewpoint offering breathtaking panoramic vistas most tourists miss.,300,low,Apr–Jun,"couple,solo,backpacker",45.4418,-94.088,https://images.unsplash.com/photo-1506905925346-21bda4d32df4?w=800
36b53e2b-c579-4d02-9284-350678c1cf90,Hidden Rappelling at Darjeeling,Darjeeling,West Bengal,India,adventure,A hidden adventure spot offering thrills without the tourist rush.,50,medium,Sunset,solo,11.8487,81.9986,https://images.unsplash.com/photo-1564769625905-50e93615e769?w=800
6d6a1533-022b-4782-ab7c-7df8593b9920,Secret Summit Trail of Pokhara,Pokhara,Nepal,Thailand,trek,An offbeat trekking trail offering panoramic views with very few other hikers.,0,low,Jul–Sep,"backpacker,family",20.4766,16.6264,https://images.unsplash.com/photo-1551632811-561732d1e306?w=800
35e229cb-d70e-431b-8b6b-afa24df79645,The Lost Lake near Franz Josef,Franz Josef,New Zealand,Spain,nature,"A pristine natural spot rarely visited — pure air, lush greenery, and tranquility.",500,medium,Nov–Feb,"family,friends",56.5392,114.5891,https://images.unsplash.com/photo-1441974231531-c6227db76b6e?w=800
1f51a067-59b0-4dd0-bd5e-04951179e443,Offbeat Kayaking in Shimla,Shimla,Himachal Pradesh,India,adventure,A hidden adventure spot offering thrills without the tourist rush.,150,medium,Early Morning,"solo,couple,backpacker",22.7011,76.862,https://images.unsplash.com/photo-1564769625905-50e93615e769?w=800
ed080128-181c-4c5c-bd4e-1bf21c7ecebb,Hidden Valley of Alleppey,Alleppey,Kerala,India,nature,"A pristine natural spot rarely visited — pure air, lush greenery, and tranquility.",1000,low,Apr–Jun,family,16.8689,88.0236,https://images.unsplash.com/photo-1441974231531-c6227db76b6e?w=800
c5f52969-9b56-405d-837d-4dec9a8a7324,Jodhpur Cascade,Jodhpur,Rajasthan,India,waterfall,"A stunning hidden waterfall tucked deep in the forest, accessible via a short trek.",750,low,Apr–Jun,"backpacker,friends,solo",27.8999,94.3166,https://images.unsplash.com/photo-1433086966358-54859d0ed716?w=800
be31cf11-f66f-4ffa-bdf9-468e7924c29e,Tbilisi Cliff Jump,Tbilisi,Georgia,Spain,adventure,A hidden adventure spot offering thrills without the tourist rush.,2000,low,Sunset,backpacker,-4.8223,-8.997,https://images.unsplash.com/photo-1564769625905-50e93615e769?w=800
2b6e4927-5fc1-41d5-8acc-43e486ec69ea,The Secret Waterfall near Ninh Binh,Ninh Binh,Vietnam,Nepal,waterfall,"A stunning hidden waterfall tucked deep in the forest, accessible via a short trek.",150,low,Apr–Jun,"solo,friends",3.8518,76.0744,https://images.unsplash.com/photo-1433086966358-54859d0ed716?w=800
59c09e90-d354-410e-9746-3a29f7c7099c,Matera Hidden Falls,Matera,Italy,France,waterfall,"A stunning hidden waterfall tucked deep in the forest, accessible via a short trek.",2000,low,Sunset,"friends,solo,couple",44.6459,-51.3656,https://images.unsplash.com/photo-1433086966358-54859d0ed716?w=800
0f7f989a-209c-46fe-ae8a-195c1d816a5a,Jodhpur Panorama Point,Jodhpur,Rajasthan,India,viewpoint,A hidden hilltop viewpoint offering breathtaking panoramic vistas most tourists miss.,400,medium,Nov–Feb,"couple,solo",21.2516,80.5762,https://images.unsplash.com/photo-1506905925346-21bda4d32df4?w=800
c4332fe6-f0a4-4776-a9fc-3f02a823ccad,Misty Falls of Ubud,Ubud,Bali,Nepal,waterfall,"A stunning hidden waterfall tucked deep in the forest, accessible via a short trek.",500,low,Jul–Sep,"family,solo",59.8904,29.6648,https://images.unsplash.com/photo-1433086966358-54859d0ed716?w=800
90d4bcc6-8af0-4d08-9f46-d22b71e236a9,Secret Garden of Kasol,Kasol,Himachal Pradesh,India,nature,"A pristine natural spot rarely visited — pure air, lush greenery, and tranquility.",50,low,Monsoon,"solo,friends,couple",10.9477,80.0817,https://images.unsplash.com/photo-1441974231531-c6227db76b6e?w=800
e96fd9e4-b403-4921-97cb-845f505cb16b,The Little Cafe in Kampot,Kampot,Cambodia,Spain,cafe,"A charming tucked-away cafe loved by locals — great coffee, food, and ambiance.",300,low,Sunrise,"backpacker,solo",8.2522,-122.2628,https://images.unsplash.com/photo-1501339847302-ac426a4a7cbb?w=800
4d11fc6f-8396-41d0-9034-c108a867096f,Kasol Hidden Falls,Kasol,Himachal Pradesh,India,waterfall,"A stunning hidden waterfall tucked deep in the forest, accessible via a short trek.",400,medium,Jul–Sep,"couple,friends",21.0627,91.8999,https://images.unsplash.com/photo-1433086966358-54859d0ed716?w=800
04497687-e141-4163-8c14-aead9d6a1e52,Jungle Waterfall near Matera,Matera,Italy,Spain,waterfall,"A stunning hidden waterfall tucked deep in the forest, accessible via a short trek.",200,medium,Sunset,"family,friends,couple",4.164,-86.4998,https://images.unsplash.com/photo-1433086966358-54859d0ed716?w=800
97ad2208-b0da-4e4b-af0e-0aa27cb1e7cc,Enchanted Forest of Wadi Rum,Wadi Rum,Jordan,Jordan,nature,"A pristine natural spot rarely visited — pure air, lush greenery, and tranquility.",100,low,Sunset,"couple,friends",-5.4794,23.6321,https://images.unsplash.com/photo-1441974231531-c6227db76b6e?w=800
ce19c672-99d4-4ec3-8ba3-92cf3ebbfc40,Hidden Pass near Wayanad,Wayanad,Kerala,India,trek,An offbeat trekking trail offering panoramic views with very few other hikers.,500,low,Nov–Feb,"couple,solo",18.0945,88.8178,https://images.unsplash.com/photo-1551632811-561732d1e306?w=800
3e82e961-21db-4799-bdf4-d49fca1ff26a,The Forgotten Lookout in Gokarna,Gokarna,Karnataka,India,viewpoint,A hidden hilltop viewpoint offering breathtaking panoramic vistas most tourists miss.,750,low,Monsoon,"friends,family",34.3796,76.6589,https://images.unsplash.com/photo-1506905925346-21bda4d32df4?w=800
79663a81-d57e-470f-b4f5-87f18784c28b,Hidden Cove of Spiti,Spiti,Himachal Pradesh,India,beach,"A secluded beach hidden from mainstream tourists — crystal waters, untouched sands, and peaceful surroundings.",300,medium,Year-round,"backpacker,solo",34.36,80.8829,https://images.unsplash.com/photo-1507525428034-b723cf961d3e?w=800
d8af98d9-6dcb-4cac-afae-1ddfde1f7533,Hidden Rappelling at Pokhara,Pokhara,Nepal,Thailand,adventure,A hidden adventure spot offering thrills without the tourist rush.,500,low,Year-round,"backpacker,couple,friends",-27.5429,-98.573,https://images.unsplash.com/photo-1564769625905-50e93615e769?w=800
c3815bc8-4664-4caa-bd35-3171b5d9895a,Hidden Temple in Goa,Goa,Goa,India,historical,A forgotten historical site with rich stories and minimal crowds.,50,low,Early Morning,"couple,backpacker,family",31.8396,76.7389,https://images.unsplash.com/photo-1524492412937-b28074a5d7da?w=800
f346a2db-9f6d-44b1-9b14-25ed680fb35e,Alleppey Rooftop Cafe,Alleppey,Kerala,India,cafe,"A charming tucked-away cafe loved by locals — great coffee, food, and ambiance.",100,low,Apr–Jun,backpacker,19.0942,75.8844,https://images.unsplash.com/photo-1501339847302-ac426a4a7cbb?w=800
89dce794-bef3-49a4-b1df-dde080279f9a,Offbeat Kayaking in Ubud,Ubud,Bali,Italy,adventure,A hidden adventure spot offering thrills without the tourist rush.,100,low,Nov–Feb,"couple,family,backpacker",-44.6233,94.5422,https://images.unsplash.com/photo-1564769625905-50e93615e769?w=800
4e0843d8-bd1b-4ad9-99ae-2c5a073bfd2f,Hidden Viewpoint at Rishikesh,Rishikesh,Uttarakhand,India,viewpoint,A hidden hilltop viewpoint offering breathtaking panoramic vistas most tourists miss.,1500,medium,Nov–Feb,"family,couple",15.3316,77.2512,https://images.unsplash.com/photo-1506905925346-21bda4d32df4?w=800
988723ae-e204-4de9-a42a-5734883f1a4c,Enchanted Forest of Spiti,Spiti,Himachal Pradesh,India,nature,"A pristine natural spot rarely visited — pure air, lush greenery, and tranquility.",400,low,Monsoon,"backpacker,solo,friends",29.6577,83.3298,https://images.unsplash.com/photo-1441974231531-c6227db76b6e?w=800
509645a0-d20e-44ed-9fe5-842573e202a5,Jungle Waterfall near Gangtok,Gangtok,Sikkim,India,waterfall,"A stunning hidden waterfall tucked deep in the forest, accessible via a short trek.",100,low,Apr–Jun,couple,30.7655,70.1796,https://images.unsplash.com/photo-1433086966358-54859d0ed716?w=800
27834eeb-f423-4171-967d-03f3009b2cb8,Wadi Rum Valley Trek,Wadi Rum,Jordan,Portugal,trek,An offbeat trekking trail offering panoramic views with very few other hikers.,0,low,Oct–Mar,"backpacker,couple",-4.2298,131.6105,https://images.unsplash.com/photo-1551632811-561732d1e306?w=800
604d9d28-eda5-4fd8-b9a0-b5e499b798a4,Jaisalmer Sacred Grove,Jaisalmer,Rajasthan,India,nature,"A pristine natural spot rarely visited — pure air, lush greenery, and tranquility.",750,low,Jul–Sep,solo,33.7248,98.4782,https://images.unsplash.com/photo-1441974231531-c6227db76b6e?w=800
ed01b82d-0f91-4536-a450-4b0717738d2c,Hidden Cave Monastery at Matera,Matera,Italy,Japan,historical,A forgotten historical site with rich stories and minimal crowds.,100,medium,Nov–Feb,family,-25.2019,65.8136,https://images.unsplash.com/photo-1524492412937-b28074a5d7da?w=800
6cdea334-1f0b-4b00-9197-705d28099748,Bandipur Sacred Grove,Bandipur,Nepal,Portugal,nature,"A pristine natural spot rarely visited — pure air, lush greenery, and tranquility.",50,low,Sunrise,"backpacker,solo",59.1495,135.482,https://images.unsplash.com/photo-1441974231531-c6227db76b6e?w=800
65ca1c96-f2bf-4409-9ee9-47acd5b9792a,Misty Falls of Tbilisi,Tbilisi,Georgia,Italy,waterfall,"A stunning hidden waterfall tucked deep in the forest, accessible via a short trek.",2000,medium,Sunset,"family,couple",17.6463,6.502,https://images.unsplash.com/photo-1433086966358-54859d0ed716?w=800
a74512f1-9125-443c-8dc6-9ee9c6fdacb5,Jungle Waterfall near Ooty,Ooty,Tamil Nadu,India,waterfall,"A stunning hidden waterfall tucked deep in the forest, accessible via a short trek.",1500,medium,Year-round,"friends,family,backpacker",15.3595,93.2578,https://images.unsplash.com/photo-1433086966358-54859d0ed716?w=800
3d40fe40-f87b-40e5-a217-fcef098bc254,Secret Vista of Goa,Goa,Goa,India,viewpoint,A hidden hilltop viewpoint offering breathtaking panoramic vistas most tourists miss.,400,low,Sunrise,couple,16.3284,72.0474,https://images.unsplash.com/photo-1506905925346-21bda4d32df4?w=800
431a2d01-13da-43c1-8a81-893ea0986477,Secret Zip Line near Sigiriya,Sigiriya,Sri Lanka,Jordan,adventure,A hidden adventure spot offering thrills without the tourist rush.,200,medium,Year-round,"backpacker,family,solo",63.7466,3.887,https://images.unsplash.com/photo-1564769625905-50e93615e769?w=800
79f6622b-8145-451a-9084-3973fb1f0e72,Ancient Ruins near Wayanad,Wayanad,Kerala,India,historical,A forgotten historical site with rich stories and minimal crowds.,1500,low,Jul–Sep,"backpacker,family,friends",8.0294,74.6401,https://images.unsplash.com/photo-1524492412937-b28074a5d7da?w=800
e97ade05-5cd6-4443-b084-0a02df981c29,Kodaikanal Sunrise Point,Kodaikanal,Tamil Nadu,India,viewpoint,A hidden hilltop viewpoint offering breathtaking panoramic vistas most tourists miss.,2000,low,Sunrise,friends,29.4495,96.0392,https://images.unsplash.com/photo-1506905925346-21bda4d32df4?w=800
efb3f774-3c6e-416c-a1fe-fe9eb0f54524,The Forgotten Lookout in Hampi,Hampi,Karnataka,India,viewpoint,A hidden hilltop viewpoint offering breathtaking panoramic vistas most tourists miss.,1000,low,Monsoon,"backpacker,family",14.3117,88.2953,https://images.unsplash.com/photo-1506905925346-21bda4d32df4?w=800
c6048221-f41a-43ae-9ab5-b24a01d77054,Hidden Viewpoint at Darjeeling,Darjeeling,West Bengal,India,viewpoint,A hidden hilltop viewpoint offering breathtaking panoramic vistas most tourists miss.,150,low,Oct–Mar,"family,solo",29.7692,90.0187,https://images.unsplash.com/photo-1506905925346-21bda4d32df4?w=800
d988e0c7-77d7-4d67-9cca-825cfc9494af,Secret Summit Trail of Ella,Ella,Sri Lanka,Morocco,trek,An offbeat trekking trail offering panoramic views with very few other hikers.,400,medium,Monsoon,backpacker,-30.3356,58.0475,https://images.unsplash.com/photo-1551632811-561732d1e306?w=800
a8b1f12f-93ae-4552-bd15-be6de13dd63f,Untouched Sands of Shimla,Shimla,Himachal Pradesh,India,beach,"A secluded beach hidden from mainstream tourists — crystal waters, untouched sands, and peaceful surroundings.",2000,low,Early Morning,"family,backpacker,solo",26.1063,68.3261,https://images.unsplash.com/photo-1507525428034-b723cf961d3e?w=800
23be5810-c9c4-4f78-af9a-339a9b0dfa26,Jungle Waterfall near Gokarna,Gokarna,Karnataka,India,waterfall,"A stunning hidden waterfall tucked deep in the forest, accessible via a short trek.",500,low,Post-Monsoon,couple,12.3493,75.4917,https://images.unsplash.com/photo-1433086966358-54859d0ed716?w=800
57a96438-7e5c-4834-aa1c-0268df8e6eeb,The Forgotten Lookout in Shimla,Shimla,Himachal Pradesh,India,viewpoint,A hidden hilltop viewpoint offering breathtaking panoramic vistas most tourists miss.,150,low,Sunset,"solo,friends,backpacker",17.37,80.3723,https://images.unsplash.com/photo-1506905925346-21bda4d32df4?w=800
b17f6a93-6765-4ec1-8be1-e90dbd245fef,Chiang Rai Virgin Beach,Chiang Rai,Thailand,Spain,beach,"A secluded beach hidden from mainstream tourists — crystal waters, untouched sands, and peaceful surroundings.",2000,low,Year-round,"solo,couple",-1.4716,96.0093,https://images.unsplash.com/photo-1507525428034-b723cf961d3e?w=800
bbccb319-20be-482c-b9e1-159b6923cd6b,Untouched Sands of Nainital,Nainital,Uttarakhand,India,beach,"A secluded beach hidden from mainstream tourists — crystal waters, untouched sands, and peaceful surroundings.",100,medium,Nov–Feb,backpacker,18.0506,74.1727,https://images.unsplash.com/photo-1507525428034-b723cf961d3e?w=800
18a46b71-6d17-44ed-9d59-dcfc2ff24660,The Quiet Beach at Lonavala,Lonavala,Maharashtra,India,beach,"A secluded beach hidden from mainstream tourists — crystal waters, untouched sands, and peaceful surroundings.",1000,medium,Nov–Feb,"solo,couple",22.2003,85.8473,https://images.unsplash.com/photo-1507525428034-b723cf961d3e?w=800
77912016-6f3b-4ac0-8d3a-afafa38ed2d3,Hidden Cove of Shimla,Shimla,Himachal Pradesh,India,beach,"A secluded beach hidden from mainstream tourists — crystal waters, untouched sands, and peaceful surroundings.",300,medium,Oct–Mar,"family,solo",26.0136,80.623,https://images.unsplash.com/photo-1507525428034-b723cf961d3e?w=800
84990c64-6ce1-48ca-a3f8-f1966503bfbe,Hidden Brew of Andaman,Andaman,Andaman,India,cafe,"A charming tucked-away cafe loved by locals — great coffee, food, and ambiance.",50,medium,Year-round,friends,22.1314,69.4035,https://images.unsplash.com/photo-1501339847302-ac426a4a7cbb?w=800
7d75f63c-6036-4edf-873d-d79946f8e904,Hidden Rappelling at Plovdiv,Plovdiv,Bulgaria,Portugal,adventure,A hidden adventure spot offering thrills without the tourist rush.,50,medium,Post-Monsoon,"solo,couple",-39.1512,63.0795,https://images.unsplash.com/photo-1564769625905-50e93615e769?w=800
f0f6c132-ac4f-438c-8d23-731c314e1269,Hidden Brew of Munnar,Munnar,Kerala,India,cafe,"A charming tucked-away cafe loved by locals — great coffee, food, and ambiance.",1000,medium,Year-round,family,9.1389,73.6757,https://images.unsplash.com/photo-1501339847302-ac426a4a7cbb?w=800
d3cb876e-ed38-4c7c-af49-1813d5ca3132,The Lost Stepwell of Lonavala,Lonavala,Maharashtra,India,historical,A forgotten historical site with rich stories and minimal crowds.,400,low,Apr–Jun,"couple,solo",8.7761,70.4847,https://images.unsplash.com/photo-1524492412937-b28074a5d7da?w=800
d0798f34-d30b-4d07-b417-914e048c338b,Forgotten Fort of Coorg,Coorg,Karnataka,India,historical,A forgotten historical site with rich stories and minimal crowds.,750,low,Early Morning,"couple,friends",23.2949,79.389,https://images.unsplash.com/photo-1524492412937-b28074a5d7da?w=800
fcfa4325-7515-44c6-bc97-1a36881a7fc3,Secret Vista of Franz Josef,Franz Josef,New Zealand,Greece,viewpoint,A hidden hilltop viewpoint offering breathtaking panoramic vistas most tourists miss.,400,low,Sunrise,"backpacker,friends",39.7825,-101.9294,https://images.unsplash.com/photo-1506905925346-21bda4d32df4?w=800
c893bccd-2f10-4af3-97a7-da52559b7554,Hidden Pass near Swakopmund,Swakopmund,Namibia,Nepal,trek,An offbeat trekking trail offering panoramic views with very few other hikers.,300,medium,Early Morning,couple,-38.2219,-62.5615,https://images.unsplash.com/photo-1551632811-561732d1e306?w=800
237dcfcb-9cd0-46b9-8f00-71b4dfdededb,Sigiriya Sunrise Point,Sigiriya,Sri Lanka,New Zealand,viewpoint,A hidden hilltop viewpoint offering breathtaking panoramic vistas most tourists miss.,1000,medium,Monsoon,"couple,solo",22.0859,-119.0268,https://images.unsplash.com/photo-1506905925346-21bda4d32df4?w=800
76b7aad5-826a-4267-8e85-1751e3ec1f79,The Wild Camp at Cherrapunji,Cherrapunji,Meghalaya,India,adventure,A hidden adventure spot offering thrills without the tourist rush.,1500,low,Jul–Sep,couple,8.3124,72.9719,https://images.unsplash.com/photo-1564769625905-50e93615e769?w=800
55dcd00d-d54f-46bc-884f-c52b589b9559,The Bohemian Cup in Franz Josef,Franz Josef,New Zealand,France,cafe,"A charming tucked-away cafe loved by locals — great coffee, food, and ambiance.",150,medium,Monsoon,"solo,couple,friends",5.77,-96.9938,https://images.unsplash.com/photo-1501339847302-ac426a4a7cbb?w=800
1d0c722a-5db5-4205-9cd5-9bae176f8a0b,Hidden Cove of Varanasi,Varanasi,Uttar Pradesh,India,beach,"A secluded beach hidden from mainstream tourists — crystal waters, untouched sands, and peaceful surroundings.",150,medium,Sunset,"family,couple,friends",9.6233,90.6502,https://images.unsplash.com/photo-1507525428034-b723cf961d3e?w=800
be5549d3-1047-4c9f-80c7-896c6c70d7fb,Offbeat Trek to Cherrapunji,Cherrapunji,Meghalaya,India,trek,An offbeat trekking trail offering panoramic views with very few other hikers.,400,low,Year-round,"couple,friends",14.2724,79.8435,https://images.unsplash.com/photo-1551632811-561732d1e306?w=800
3ffb563f-698a-40b2-9041-8e06c0e34673,The Forgotten Lookout in Alleppey,Alleppey,Kerala,India,viewpoint,A hidden hilltop viewpoint offering breathtaking panoramic vistas most tourists miss.,400,medium,Year-round,"solo,backpacker,couple",13.6698,78.6913,https://images.unsplash.com/photo-1506905925346-21bda4d32df4?w=800
6c55b535-71b0-4bcf-afb0-0d0afc01dd9e,Hallstatt Sunrise Point,Hallstatt,Austria,Vietnam,viewpoint,A hidden hilltop viewpoint offering breathtaking panoramic vistas most tourists miss.,1000,medium,Sunrise,family,-26.1103,99.5686,https://images.unsplash.com/photo-1506905925346-21bda4d32df4?w=800
340ac2a6-eb37-4a0b-a5cd-17c31da71114,The Bohemian Cup in Chiang Rai,Chiang Rai,Thailand,Nepal,cafe,"A charming tucked-away cafe loved by locals — great coffee, food, and ambiance.",50,medium,Post-Monsoon,backpacker,51.0213,37.9639,https://images.unsplash.com/photo-1501339847302-ac426a4a7cbb?w=800
c9a46b18-05ac-43e2-8eb5-f5028bb07dbc,Hidden Brew of Leh,Leh,Ladakh,India,cafe,"A charming tucked-away cafe loved by locals — great coffee, food, and ambiance.",1500,low,Oct–Mar,"solo,friends",19.7778,82.5589,https://images.unsplash.com/photo-1501339847302-ac426a4a7cbb?w=800
d1ad41c6-0d73-46f1-9eac-b92e1b7e487a,Enchanted Forest of Plovdiv,Plovdiv,Bulgaria,Nepal,nature,"A pristine natural spot rarely visited — pure air, lush greenery, and tranquility.",200,low,Jul–Sep,friends,13.6471,-22.9292,https://images.unsplash.com/photo-1441974231531-c6227db76b6e?w=800
640c3839-053e-4a0f-8b36-a31738dd82f1,Secret Vista of Ooty,Ooty,Tamil Nadu,India,viewpoint,A hidden hilltop viewpoint offering breathtaking panoramic vistas most tourists miss.,300,low,Year-round,"friends,family,couple",31.9379,86.3574,https://images.unsplash.com/photo-1506905925346-21bda4d32df4?w=800
697adfad-5928-41fd-ab7b-8571ee02bdf8,The Secret Waterfall near Puri,Puri,Odisha,India,waterfall,"A stunning hidden waterfall tucked deep in the forest, accessible via a short trek.",150,low,Apr–Jun,"friends,solo",10.2311,95.1347,https://images.unsplash.com/photo-1433086966358-54859d0ed716?w=800
14f22720-564d-44a7-8af3-46fdfdabfc04,Sigiriya Sacred Grove,Sigiriya,Sri Lanka,Australia,nature,"A pristine natural spot rarely visited — pure air, lush greenery, and tranquility.",400,medium,Jul–Sep,solo,-33.6005,101.0442,https://images.unsplash.com/photo-1441974231531-c6227db76b6e?w=800
7e1b87dd-0a16-448e-8c9f-de3b99b3cef3,Offbeat Kayaking in Andaman,Andaman,Andaman,India,adventure,A hidden adventure spot offering thrills without the tourist rush.,300,low,Nov–Feb,"friends,family,solo",22.5626,70.5198,https://images.unsplash.com/photo-1564769625905-50e93615e769?w=800
